row_index,company,location,source_city,existing_county,computed_county,join_key_used,exact_join_key,company_key,join_status,coordinate_source_file,coordinate_source_sheet,coordinate_company,coordinate_location,coordinate_address,coordinate_city,coordinate_location_city,coordinate_address_city,coordinate_county,coordinate_location_county,latitude,longitude,outside_georgia_polygon,unassignable_county,county_mismatch,city_conflict,geo_usable,geo_quality_status
0,ACM Georgia LLC,"Calhoun, Gordon County",Calhoun,Gordon,Warren,company+location,acm georgia llc||calhoun gordon county,acm georgia llc,matched_exact,GNEM - Auto Landscape Lat Long Updated.xlsx,Sheet1,ACM Georgia LLC,"Calhoun, Gordon County","975 Thomson Hwy, Warrenton, GA 30828",,Calhoun,Warrenton,,Gordon,33.4122927,-82.6406263,False,False,False,True,False,city_conflict
1,Adient,"Ringgold, Catoosa County",Ringgold,Catoosa,Harris,company+location,adient||ringgold catoosa county,adient,matched_exact,GNEM - Auto Landscape Lat Long Updated.xlsx,Sheet1,Adient,"Ringgold, Catoosa County","1700 S Progress Pkwy, West Point, GA 31833",,Ringgold,West Point,,Catoosa,32.8486888,-85.1244466,False,False,False,True,False,city_conflict
2,ADVICS Manufacturing Georgia LLC,Troup County,,Troup,Troup,company+location,advics manufacturing georgia llc||troup county,advics manufacturing georgia llc,matched_exact,GNEM - Auto Landscape Lat Long Updated.xlsx,Sheet1,ADVICS Manufacturing Georgia LLC,Troup County,"1621 Lukken Industrial Dr W, LaGrange, GA 30240",,,Lagrange,,Troup,33.0113943,-85.0615448,False,False,False,False,True,geo_usable
3,Ajin Georgia,"Dalton, Whitfield County",Dalton,Whitfield,Bulloch,company+location,ajin georgia||dalton whitfield county,ajin georgia,matched_exact,GNEM - Auto Landscape Lat Long Updated.xlsx,Sheet1,Ajin Georgia,"Dalton, Whitfield County","355 Rocky Rd, Register, GA 30452",,Dalton,Register,,Whitfield,32.3008535,-81.8644866,False,False,False,True,False,city_conflict
4,ALBAform Inc.,"Calhoun, Gordon County",Calhoun,Gordon,Hall,company+location,albaform inc||calhoun gordon county,albaform inc,matched_exact,GNEM - Auto Landscape Lat Long Updated.xlsx,Sheet1,ALBAform Inc.,"Calhoun, Gordon County","6505 McEver Rd, Flowery Branch, GA 30542",,Calhoun,Flowery Branch,,Gordon,34.1674763,-83.9581455,False,False,False,True,False,city_conflict
5,Anovion Technologies,"Dalton, Whitfield County",Dalton,Whitfield,,company+location_then_company,anovion technologies||dalton whitfield county,anovion technologies,no_join_match,,,,,,,,,,,,,False,False,False,False,False,no_join_match
6,Apache Mills Inc.,"Hawkinsville, Pulaski County",Hawkinsville,Pulaski,Hall,company+location,apache mills inc||hawkinsville pulaski county,apache mills inc,matched_exact,GNEM - Auto Landscape Lat Long Updated.xlsx,Sheet1,Apache Mills Inc.,"Hawkinsville, Pulaski County","3270 Joe Jerkins Blvd SE, Calhoun, GA 30701",,Hawkinsville,Calhoun,,Pulaski,34.1674763,-83.9581455,False,False,False,True,False,city_conflict
7,Aptiv,"Statesboro, Bulloch County",Statesboro,Bulloch,,company+location_then_company,aptiv||statesboro bulloch county,aptiv,no_join_match,,,,,,,,,,,,,False,False,False,False,False,no_join_match
8,Archer Aviation Inc.,"Ellaville, Schley County",Ellaville,Schley,Morgan,company+location,archer aviation inc||ellaville schley county,archer aviation inc,matched_exact,GNEM - Auto Landscape Lat Long Updated.xlsx,Sheet1,Archer Aviation Inc.,"Ellaville, Schley County","2151 Centennial Pkwy NE, Covington, GA 30014",,Ellaville,Covington,,Schley,33.5928931,-83.6101194,False,False,False,True,False,city_conflict
9,Arising Industries Inc.,"Lawrenceville, Gwinnett County",Lawrenceville,Gwinnett,Gwinnett,company+location,arising industries inc||lawrenceville gwinnett county,arising industries inc,matched_exact,GNEM - Auto Landscape Lat Long Updated.xlsx,Sheet1,Arising Industries Inc.,"Lawrenceville, Gwinnett County","6010 Unity Dr, Norcross, GA 30071",,Lawrenceville,Norcross,,Gwinnett,33.9151041,-84.2039953,False,False,False,True,False,city_conflict
10,Arising Industries Inc.,"Macon, Bibb County",Macon,Bibb,Gwinnett,company+location,arising industries inc||macon bibb county,arising industries inc,matched_exact,GNEM - Auto Landscape Lat Long Updated.xlsx,Sheet1,Arising Industries Inc.,"Macon, Bibb County","6010 Unity Dr, Norcross, GA 30071",,Macon,Norcross,,Bibb,33.9151041,-84.2039953,False,False,False,True,False,city_conflict
11,Ascend Elements,"Statesboro, Bulloch County",Statesboro,Bulloch,Henry,company+location,ascend elements||statesboro bulloch county,ascend elements,matched_exact,GNEM - Auto Landscape Lat Long Updated.xlsx,Sheet1,Ascend Elements,"Statesboro, Bulloch County","1409 Brampton Ave, Covington, GA 30014",,Statesboro,Covington,,Bulloch,33.3390858,-84.1874153,False,False,False,True,False,city_conflict
12,Aspen Aerogels,Troup County,,Troup,,company+location_then_company,aspen aerogels||troup county,aspen aerogels,no_join_match,,,,,,,,,,,,,False,False,False,False,False,no_join_match
13,Aurubis,Troup County,,Troup,Richmond,company+location,aurubis||troup county,aurubis,matched_exact,GNEM - Auto Landscape Lat Long Updated.xlsx,Sheet1,Aurubis,Troup County,"439 Valencia Way, Augusta, GA 30906",,,Augusta,,Troup,33.282551,-81.955757,False,False,False,False,False,insufficient_location_consistency
14,AVS,"Barnesville, Lamar County",Barnesville,Lamar,Forsyth,company+location,avs||barnesville lamar county,avs,matched_exact,GNEM - Auto Landscape Lat Long Updated.xlsx,Sheet1,AVS,"Barnesville, Lamar County","6110 McFarland Station Dr, Alpharetta, GA 30004",,Barnesville,Alpharetta,,Lamar,34.134562,-84.252772,False,False,False,True,False,city_conflict
15,Beaver Manufacturing Co. Inc.,"Griffin, Spalding County",Griffin,Spalding,Newton,company+location,beaver manufacturing co inc||griffin spalding county,beaver manufacturing co inc,matched_exact,GNEM - Auto Landscape Lat Long Updated.xlsx,Sheet1,Beaver Manufacturing Co. Inc.,"Griffin, Spalding County","12 Ed Needham Dr, Mansfield, GA 30055",,Griffin,Mansfield,,Spalding,33.518502,-83.736037,False,False,False,True,False,city_conflict
16,Big Tex Trailer Manufacturing Inc.,"Monroe, Walton County",Monroe,Walton,Gwinnett,company+location,big tex trailer manufacturing inc||monroe walton county,big tex trailer manufacturing inc,matched_exact,GNEM - Auto Landscape Lat Long Updated.xlsx,Sheet1,Big Tex Trailer Manufacturing Inc.,"Monroe, Walton County","3850 Harrison Rd, Loganville, GA 30052",,Monroe,Loganville,,Walton,33.849953,-83.920769,False,False,False,True,False,city_conflict
17,Blue Bird Corp.,"Elberton, Elbert County",Elberton,Elbert,Peach,company+location,blue bird corp||elberton elbert county,blue bird corp,matched_exact,GNEM - Auto Landscape Lat Long Updated.xlsx,Sheet1,Blue Bird Corp.,"Elberton, Elbert County","402 Blue Bird Blvd, Fort Valley, GA 31030",,Elberton,Fort Valley,,Elbert,32.561892,-83.87919,False,False,False,True,False,city_conflict
18,Blue Ridge Manufacturing,"Canton, Cherokee County",Canton,Cherokee,Union,company+location,blue ridge manufacturing||canton cherokee county,blue ridge manufacturing,matched_exact,GNEM - Auto Landscape Lat Long Updated.xlsx,Sheet1,Blue Ridge Manufacturing,"Canton, Cherokee County","87 Tom Boyd Rd, Blue Ridge, GA 30513",,Canton,Blue Ridge,,Cherokee,34.8963485,-84.094162,False,False,False,True,False,city_conflict
19,Bonnell Aluminum,Troup County,,Troup,Coweta,company+location,bonnell aluminum||troup county,bonnell aluminum,matched_exact,GNEM - Auto Landscape Lat Long Updated.xlsx,Sheet1,Bonnell Aluminum,Troup County,"37 LaGrange St, Newnan, GA 30263",,,Newnan,,Troup,33.3719956,-84.8012883,False,False,False,False,False,insufficient_location_consistency
20,Boogook Industries,"Gainesville, Hall County",Gainesville,Hall,Bibb,company+location,boogook industries||gainesville hall county,boogook industries,matched_exact,GNEM - Auto Landscape Lat Long Updated.xlsx,Sheet1,Boogook Industries,"Gainesville, Hall County","2600 Weaver Rd Suite 1-11, Macon, GA 31217",,Gainesville,Macon,,Hall,32.8141689,-83.5566387,False,False,False,True,False,city_conflict
21,Bosal Industries Georgia,"Rome, Floyd County",Rome,Floyd,Franklin,company+location,bosal industries georgia||rome floyd county,bosal industries georgia,matched_exact,GNEM - Auto Landscape Lat Long Updated.xlsx,Sheet1,Bosal Industries Georgia,"Rome, Floyd County","1 Bosal Way, Lavonia, GA 30553",,Rome,Lavonia,,Floyd,34.4385903,-83.1215748,False,False,False,True,False,city_conflict
22,Bosch (Automotive Division),"Thomson, McDuffie County",Thomson,Mcduffie,Stephens,company+location,bosch automotive division||thomson mcduffie county,bosch automotive division,matched_exact,GNEM - Auto Landscape Lat Long Updated.xlsx,Sheet1,Bosch (Automotive Division),"Thomson, McDuffie County","1241 Meadowbrook Dr, Toccoa, GA 30577",,Thomson,Toccoa,,Mcduffie,34.5288916,-83.2825339,False,False,False,True,False,city_conflict
23,Bridgestone Bandag,"Augusta, Richmond County",Augusta,Richmond,Spalding,company+location,bridgestone bandag||augusta richmond county,bridgestone bandag,matched_exact,GNEM - Auto Landscape Lat Long Updated.xlsx,Sheet1,Bridgestone Bandag,"Augusta, Richmond County","801 Greenbelt Pkwy, Griffin, GA 30223",,Augusta,Griffin,,Richmond,33.2369594,-84.2346421,False,False,False,True,False,city_conflict
24,Carcoustics USA,"Griffin, Spalding County",Griffin,Spalding,Gwinnett,company+location,carcoustics usa||griffin spalding county,carcoustics usa,matched_exact,GNEM - Auto Landscape Lat Long Updated.xlsx,Sheet1,Carcoustics USA,"Griffin, Spalding County","4740 S Lee St, Buford, GA 30518",,Griffin,Buford,,Spalding,34.1143595,-84.0074037,False,False,False,True,False,city_conflict
25,Club Car LLC,"Madison, Morgan County",Madison,Morgan,Columbia,company+location,club car llc||madison morgan county,club car llc,matched_exact,GNEM - Auto Landscape Lat Long Updated.xlsx,Sheet1,Club Car LLC,"Madison, Morgan County","4125 Washington Rd, Evans, GA 30809",,Madison,Evans,,Morgan,33.5200327,-82.1126401,False,False,False,True,False,city_conflict
26,Constellium Automotive USA,"Cartersville, Bartow County",Cartersville,Bartow,Bartow,company+location,constellium automotive usa||cartersville bartow county,constellium automotive usa,matched_exact,GNEM - Auto Landscape Lat Long Updated.xlsx,Sheet1,Constellium Automotive USA,"Cartersville, Bartow County","1 Constellium Way, Cartersville, GA 30120",,Cartersville,Cartersville,,Bartow,34.1773609,-84.8109876,False,False,False,False,True,geo_usable
27,Continental Automotive,"Jasper, Pickens County",Jasper,Pickens,Fulton,company+location,continental automotive||jasper pickens county,continental automotive,matched_exact,GNEM - Auto Landscape Lat Long Updated.xlsx,Sheet1,Continental Automotive,"Jasper, Pickens County","7310 Oakley Industrial Blvd, Fairburn, GA 30213",,Jasper,Fairburn,,Pickens,33.5496124,-84.5424686,False,False,False,True,False,city_conflict
28,Continental Tire the Americas LLC,"Lawrenceville, Gwinnett County",Lawrenceville,Gwinnett,Lamar,company+location,continental tire the americas llc||lawrenceville gwinnett county,continental tire the americas llc,matched_exact,GNEM - Auto Landscape Lat Long Updated.xlsx,Sheet1,Continental Tire the Americas LLC,"Lawrenceville, Gwinnett County","160 Aldora St, Barnesville, GA 30204",,Lawrenceville,Barnesville,,Gwinnett,33.0526972,-84.175058,False,False,False,True,False,city_conflict
29,DaeChang Seat Company,"Decatur, DeKalb County",Decatur,Dekalb,Chatham,company+location,daechang seat company||decatur dekalb county,daechang seat company,matched_exact,GNEM - Auto Landscape Lat Long Updated.xlsx,Sheet1,DaeChang Seat Company,"Decatur, DeKalb County","Savannah Chatham Manufacturing Center, Savannah, GA 31408",,Decatur,Savannah,,Dekalb,32.0841897,-81.0871481,False,False,False,True,False,city_conflict
30,DAEHAN Solution Georgia LLC,"Covington, Newton County",Covington,Newton,Henry,company+location,daehan solution georgia llc||covington newton county,daehan solution georgia llc,matched_exact,GNEM - Auto Landscape Lat Long Updated.xlsx,Sheet1,DAEHAN Solution Georgia LLC,"Covington, Newton County","123 Industrial Blvd, Covington, GA 30014",,Covington,Covington,,Newton,33.4141149,-84.1586262,False,False,False,False,False,insufficient_location_consistency
31,Daesol Ausys,"Marietta, Cobb County",Marietta,Cobb,Cobb,company+location,daesol ausys||marietta cobb county,daesol ausys,matched_exact,GNEM - Auto Landscape Lat Long Updated.xlsx,Sheet1,Daesol Ausys,"Marietta, Cobb County","2100 Lake Park Dr SE, Smyrna, GA 30080",,Marietta,Smyrna,,Cobb,33.8962818,-84.4884631,False,False,False,True,False,city_conflict
32,"Daesol Material Georgia, LLC","Lawrenceville, Gwinnett County",Lawrenceville,Gwinnett,Gwinnett,company+location,daesol material georgia llc||lawrenceville gwinnett county,daesol material georgia llc,matched_exact,GNEM - Auto Landscape Lat Long Updated.xlsx,Sheet1,"Daesol Material Georgia, LLC","Lawrenceville, Gwinnett County","2895 Old Norcross Rd, Duluth, GA 30096",,Lawrenceville,Duluth,,Gwinnett,33.9515466,-84.100027,False,False,False,True,False,city_conflict
33,Daimler Truck North America,"Covington, Newton County",Covington,Newton,Newton,company+location,daimler truck north america||covington newton county,daimler truck north america,matched_exact,GNEM - Auto Landscape Lat Long Updated.xlsx,Sheet1,Daimler Truck North America,"Covington, Newton County","7400 E Freeman Pkwy, Covington, GA 30014",,Covington,Covington,,Newton,33.5182052,-84.0153106,False,False,False,False,True,geo_usable
34,DAS Corp.,"Gainesville, Hall County",Gainesville,Hall,Candler,company+location,das corp||gainesville hall county,das corp,matched_exact,GNEM - Auto Landscape Lat Long Updated.xlsx,Sheet1,DAS Corp.,"Gainesville, Hall County","730 Fortner Rd, Metter, GA 30439",,Gainesville,Metter,,Hall,32.3838336,-82.0753462,False,False,False,True,False,city_conflict
35,Decostar Industries,"Buchanan, Haralson County",Buchanan,Haralson,Polk,company+location,decostar industries||buchanan haralson county,decostar industries,matched_exact,GNEM - Auto Landscape Lat Long Updated.xlsx,Sheet1,Decostar Industries,"Buchanan, Haralson County","219 Evans Dr, Buchanan, GA 30113",,Buchanan,Buchanan,,Haralson,33.9059545,-85.1491682,False,False,False,False,False,insufficient_location_consistency
36,DeKalb Tool & Die Inc.,"Calhoun, Gordon County",Calhoun,Gordon,Dekalb,company+location,dekalb tool die inc||calhoun gordon county,dekalb tool die inc,matched_exact,GNEM - Auto Landscape Lat Long Updated.xlsx,Sheet1,DeKalb Tool & Die Inc.,"Calhoun, Gordon County","2220 Stephens Dr, Tucker, GA 30084",,Calhoun,Tucker,,Gordon,33.849158,-84.230399,False,False,False,True,False,city_conflict
37,Denkai America,"Cumming, Forsyth County",Cumming,Forsyth,Richmond,company+location,denkai america||cumming forsyth county,denkai america,matched_exact,GNEM - Auto Landscape Lat Long Updated.xlsx,Sheet1,Denkai America,"Cumming, Forsyth County","1614 Douglas Rd, Augusta, GA 30906",,Cumming,Augusta,,Forsyth,33.4579269,-81.9963887,False,False,False,True,False,city_conflict
38,Denso Manufacturing Georgia,Troup County,,Troup,Jackson,company+location,denso manufacturing georgia||troup county,denso manufacturing georgia,matched_exact,GNEM - Auto Landscape Lat Long Updated.xlsx,Sheet1,Denso Manufacturing Georgia,Troup County,"1000 Valentine Industrial Pkwy, Pendergrass, GA 30567",,,Pendergrass,,Troup,34.1800115,-83.642691,False,False,False,False,False,insufficient_location_consistency
39,Die-Tech Industries Inc.,"Hinesville, Liberty County",Hinesville,Liberty,Carroll,company+location,die tech industries inc||hinesville liberty county,die tech industries inc,matched_exact,GNEM - Auto Landscape Lat Long Updated.xlsx,Sheet1,Die-Tech Industries Inc.,"Hinesville, Liberty County","102 Automation Dr, Carrollton, GA 30117",,Hinesville,Carrollton,,Liberty,33.6166214,-85.1044625,False,False,False,True,False,city_conflict
40,Dinex Emissions Inc.,"Greensboro, Greene County",Greensboro,Greene,Laurens,company+location,dinex emissions inc||greensboro greene county,dinex emissions inc,matched_exact,GNEM - Auto Landscape Lat Long Updated.xlsx,Sheet1,Dinex Emissions Inc.,"Greensboro, Greene County","2020 Waldrep Industrial Blvd., Dublin, GA 31021",,Greensboro,Dublin,,Greene,32.5138588,-82.9469249,False,False,False,True,False,city_conflict
41,Dongwon Autopart Technology Georgia LLC,Coweta County,,Coweta,Meriwether,company+location,dongwon autopart technology georgia llc||coweta county,dongwon autopart technology georgia llc,matched_exact,GNEM - Auto Landscape Lat Long Updated.xlsx,Sheet1,Dongwon Autopart Technology Georgia LLC,Coweta County,"475 Meriwether Park Dr, Hogansville, GA 30230",,,Hogansville,,Coweta,33.1644618,-84.8598158,False,False,False,False,False,insufficient_location_consistency
42,Dorsett Industries Inc.,"Franklin, Heard County",Franklin,Heard,Whitfield,company+location,dorsett industries inc||franklin heard county,dorsett industries inc,matched_exact,GNEM - Auto Landscape Lat Long Updated.xlsx,Sheet1,Dorsett Industries Inc.,"Franklin, Heard County","1304 May Street, Dalton, GA 30721",,Franklin,Dalton,,Heard,34.763633,-84.9494134,False,False,False,True,False,city_conflict
43,Down 2 Earth Trailers,"Cartersville, Bartow County",Cartersville,Bartow,Appling,company+location,down 2 earth trailers||cartersville bartow county,down 2 earth trailers,matched_exact,GNEM - Auto Landscape Lat Long Updated.xlsx,Sheet1,Down 2 Earth Trailers,"Cartersville, Bartow County","1605 E Parker Street, Baxley, GA 31513",,Cartersville,Baxley,,Bartow,31.7707316,-82.3229771,False,False,False,True,False,city_conflict
44,Duckyang,"Augusta, Richmond County",Augusta,Richmond,Jackson,company+location,duckyang||augusta richmond county,duckyang,matched_exact,GNEM - Auto Landscape Lat Long Updated.xlsx,Sheet1,Duckyang,"Augusta, Richmond County","984 Broadway Avenue, Braselton, GA 30517",,Augusta,Braselton,,Richmond,34.106234,-83.778946,False,False,False,True,False,city_conflict
45,Eaton Corp.,"Cartersville, Bartow County",Cartersville,Bartow,Clarke,company+location,eaton corp||cartersville bartow county,eaton corp,matched_exact,GNEM - Auto Landscape Lat Long Updated.xlsx,Sheet1,Eaton Corp.,"Cartersville, Bartow County","695 Indian Hills Road, Athens, GA 30601",,Cartersville,Athens,,Bartow,33.9664651,-83.3419235,False,False,False,True,False,city_conflict
46,Ecoplastic America Corporation,"Greensboro, Greene County",Greensboro,Greene,Bulloch,company+location,ecoplastic america corporation||greensboro greene county,ecoplastic america corporation,matched_exact,GNEM - Auto Landscape Lat Long Updated.xlsx,Sheet1,Ecoplastic America Corporation,"Greensboro, Greene County","4800 Highway 301 S., Register, GA 30452",,Greensboro,Register,,Greene,32.3288665,-81.8739395,False,False,False,True,False,city_conflict
47,Ecoplastic Corporation,"Rome, Floyd County",Rome,Floyd,Bulloch,company+location,ecoplastic corporation||rome floyd county,ecoplastic corporation,matched_exact,GNEM - Auto Landscape Lat Long Updated.xlsx,Sheet1,Ecoplastic Corporation,"Rome, Floyd County","25 Siebald St, Statesboro, GA 30458",,Rome,Statesboro,,Floyd,32.4500733,-81.7827371,False,False,False,True,False,city_conflict
48,Elan Technology Inc.,"Atlanta, Fulton County",Atlanta,Fulton,Liberty,company+location,elan technology inc||atlanta fulton county,elan technology inc,matched_exact,GNEM - Auto Landscape Lat Long Updated.xlsx,Sheet1,Elan Technology Inc.,"Atlanta, Fulton County","169 Elan Court, Midway, GA 31320",,Atlanta,Midway,,Fulton,31.7958661,-81.412058,False,False,False,True,False,city_conflict
49,Enchem America Inc.,"Cumming, Forsyth County",Cumming,Forsyth,Jackson,company+location,enchem america inc||cumming forsyth county,enchem america inc,matched_exact,GNEM - Auto Landscape Lat Long Updated.xlsx,Sheet1,Enchem America Inc.,"Cumming, Forsyth County","648 Highway 334, Commerce, GA 30530",,Cumming,Commerce,,Forsyth,34.1720636,-83.4364623,False,False,False,True,False,city_conflict
50,Enplas USA Inc.,"Covington, Newton County",Covington,Newton,Cobb,company+location,enplas usa inc||covington newton county,enplas usa inc,matched_exact,GNEM - Auto Landscape Lat Long Updated.xlsx,Sheet1,Enplas USA Inc.,"Covington, Newton County","1901 West Oak Circle, Marietta, GA 30062",,Covington,Marietta,,Newton,33.9867797,-84.522309,False,False,False,True,False,city_conflict
51,Erdrich USA Inc.,"Greensboro, Greene County",Greensboro,Greene,Laurens,company+location,erdrich usa inc||greensboro greene county,erdrich usa inc,matched_exact,GNEM - Auto Landscape Lat Long Updated.xlsx,Sheet1,Erdrich USA Inc.,"Greensboro, Greene County","112 Willie Paulk Parkway, Dublin, GA 31021",,Greensboro,Dublin,,Greene,32.5001482,-82.9817196,False,False,False,True,False,city_conflict
52,EVCO Plastics,"Augusta, Richmond County",Augusta,Richmond,Gordon,company+location,evco plastics||augusta richmond county,evco plastics,matched_exact,GNEM - Auto Landscape Lat Long Updated.xlsx,Sheet1,EVCO Plastics,"Augusta, Richmond County","100 EVCO Drive, Calhoun, GA 30701",,Augusta,Calhoun,,Richmond,34.4455959,-84.9210517,False,False,False,True,False,city_conflict
53,F&P Georgia Manufacturing,"Toccoa, Stephens County",Toccoa,Stephens,Floyd,company+location,f p georgia manufacturing||toccoa stephens county,f p georgia manufacturing,matched_exact,GNEM - Auto Landscape Lat Long Updated.xlsx,Sheet1,F&P Georgia Manufacturing,"Toccoa, Stephens County","88 Enterprise Drive SE, Rome, GA 30161",,Toccoa,Rome,,Stephens,34.1708696,-85.1938687,False,False,False,True,False,city_conflict
54,Fanello Industries Inc.,"Cumming, Forsyth County",Cumming,Forsyth,Franklin,company+location,fanello industries inc||cumming forsyth county,fanello industries inc,matched_exact,GNEM - Auto Landscape Lat Long Updated.xlsx,Sheet1,Fanello Industries Inc.,"Cumming, Forsyth County","50 E Main Street, Lavonia, GA 30553",,Cumming,Lavonia,,Forsyth,34.4200267,-83.0970583,False,False,False,True,False,city_conflict
55,First American Resources,"Albany, Dougherty County",Albany,Dougherty,Cobb,company+location,first american resources||albany dougherty county,first american resources,matched_exact,GNEM - Auto Landscape Lat Long Updated.xlsx,Sheet1,First American Resources,"Albany, Dougherty County","2030 Riverview Industrial Dr SE, Mableton, GA 30126",,Albany,Mableton,,Dougherty,33.8131088,-84.4933732,False,False,False,True,False,city_conflict
56,Flambeau Inc.,Carroll County,,Carroll,Morgan,company+location,flambeau inc||carroll county,flambeau inc,matched_exact,GNEM - Auto Landscape Lat Long Updated.xlsx,Sheet1,Flambeau Inc.,Carroll County,"1330 Atlanta Highway, Madison, GA 30650",,,Madison,,Carroll,33.5804884,-83.4853334,False,False,False,False,False,insufficient_location_consistency
57,Fouts Brothers Fire Equipment,"Statesboro, Bulloch County",Statesboro,Bulloch,Baldwin,company+location,fouts brothers fire equipment||statesboro bulloch county,fouts brothers fire equipment,matched_exact,GNEM - Auto Landscape Lat Long Updated.xlsx,Sheet1,Fouts Brothers Fire Equipment,"Statesboro, Bulloch County","138 Roberson Mill Rd, Milledgeville, GA 31061",,Statesboro,Milledgeville,,Bulloch,33.1040128,-83.2566807,False,False,False,True,False,city_conflict
58,FOX Factory,"Covington, Newton County",Covington,Newton,Gwinnett,company+location,fox factory||covington newton county,fox factory,matched_exact,GNEM - Auto Landscape Lat Long Updated.xlsx,Sheet1,FOX Factory,"Covington, Newton County","2055 Sugarloaf Circle, Suite 300, Duluth, GA 30097",,Covington,Duluth,,Newton,33.9864549,-84.0897605,False,False,False,True,False,city_conflict
59,Freudenberg-NOK,"Warrenton, Warren County",Warrenton,Warren,Troup,company+location,freudenberg nok||warrenton warren county,freudenberg nok,matched_exact,GNEM - Auto Landscape Lat Long Updated.xlsx,Sheet1,Freudenberg-NOK,"Warrenton, Warren County","1618 Lukken Industrial Dr, LaGrange, GA 30240",,Warrenton,Lagrange,,Warren,33.0137815,-85.063217,False,False,False,True,False,city_conflict
60,Freudenberg-NOK,"Carnesville, Franklin County",Carnesville,Franklin,Troup,company+location,freudenberg nok||carnesville franklin county,freudenberg nok,matched_exact,GNEM - Auto Landscape Lat Long Updated.xlsx,Sheet1,Freudenberg-NOK,"Carnesville, Franklin County","1618 Lukken Industrial Dr, LaGrange, GA 30240",,Carnesville,Lagrange,,Franklin,33.0137815,-85.063217,False,False,False,True,False,city_conflict
61,FREYR Battery,"Marietta, Cobb County",Marietta,Cobb,Fulton,company+location,freyr battery||marietta cobb county,freyr battery,matched_exact,GNEM - Auto Landscape Lat Long Updated.xlsx,Sheet1,FREYR Battery,"Marietta, Cobb County","601 10th St NW, Suite 400, Atlanta, GA 30318",,Marietta,Atlanta,,Cobb,33.7817149,-84.4078083,False,False,False,True,False,city_conflict
62,GEDIA Georgia LLC,"Jonesboro, Clayton County",Jonesboro,Clayton,Fulton,company+location,gedia georgia llc||jonesboro clayton county,gedia georgia llc,matched_exact,GNEM - Auto Landscape Lat Long Updated.xlsx,Sheet1,GEDIA Georgia LLC,"Jonesboro, Clayton County","1 GEDIA Way, Dalton, GA 30721",,Jonesboro,Dalton,,Clayton,33.7822022,-84.4078083,False,False,False,True,False,city_conflict
63,Global Powertrain Systems LLC,"Rome, Floyd County",Rome,Floyd,Jackson,company+location,global powertrain systems llc||rome floyd county,global powertrain systems llc,matched_exact,GNEM - Auto Landscape Lat Long Updated.xlsx,Sheet1,Global Powertrain Systems LLC,"Rome, Floyd County","300 Logistics Parkway, Jefferson, GA 30549",,Rome,Jefferson,,Floyd,34.1890046,-83.5972972,False,False,False,True,False,city_conflict
64,GLOVIS Georgia LLC,"Dublin, Laurens County",Dublin,Laurens,Chatham,company+location,glovis georgia llc||dublin laurens county,glovis georgia llc,matched_exact,GNEM - Auto Landscape Lat Long Updated.xlsx,Sheet1,GLOVIS Georgia LLC,"Dublin, Laurens County","127 N Park Ct, Savannah, GA 31407",,Dublin,Savannah,,Laurens,32.231682,-81.1991214,False,False,False,True,False,city_conflict
65,Goodyear Tire & Rubber Co.,"Athens, Clarke County",Athens,Clarke,Clayton,company+location,goodyear tire rubber co||athens clarke county,goodyear tire rubber co,matched_exact,GNEM - Auto Landscape Lat Long Updated.xlsx,Sheet1,Goodyear Tire & Rubber Co.,"Athens, Clarke County","1420 Phoenix Blvd, Suite 300, Atlanta, GA 30349",,Athens,Atlanta,,Clarke,33.6143207,-84.4387649,False,False,False,True,False,city_conflict
66,Great Dane LP,Muscogee County,,Muscogee,Chatham,company+location,great dane lp||muscogee county,great dane lp,matched_exact,GNEM - Auto Landscape Lat Long Updated.xlsx,Sheet1,Great Dane LP,Muscogee County,"602 E Lathrop Ave, Savannah, GA 31415",,,Savannah,,Muscogee,32.0869786,-81.1109775,False,False,False,False,False,insufficient_location_consistency
67,Great Dane Trailers,"Tifton, Tift County",Tifton,Tift,Chatham,company+location,great dane trailers||tifton tift county,great dane trailers,matched_exact,GNEM - Auto Landscape Lat Long Updated.xlsx,Sheet1,Great Dane Trailers,"Tifton, Tift County","602 E Lathrop Ave, Savannah, GA 31415",,Tifton,Savannah,,Tift,32.0869786,-81.1109775,False,False,False,True,False,city_conflict
68,Grudem,"Lawrenceville, Gwinnett County",Lawrenceville,Gwinnett,Hall,company+location,grudem||lawrenceville gwinnett county,grudem,matched_exact,GNEM - Auto Landscape Lat Long Updated.xlsx,Sheet1,Grudem,"Lawrenceville, Gwinnett County","1245 Industrial Blvd, Gainesville, GA 30501",,Lawrenceville,Gainesville,,Gwinnett,34.2762316,-83.8348776,False,False,False,True,False,city_conflict
69,GSC Steel Stamping LLC,"Gainesville, Hall County",Gainesville,Hall,Bartow,company+location,gsc steel stamping llc||gainesville hall county,gsc steel stamping llc,matched_exact,GNEM - Auto Landscape Lat Long Updated.xlsx,Sheet1,GSC Steel Stamping LLC,"Gainesville, Hall County","104 International Pkwy, Adairsville, GA 30103",,Gainesville,Adairsville,,Hall,34.3845755,-84.9241385,False,False,False,True,False,city_conflict
70,Haering Precision USA LP,Carroll County,,Carroll,Hall,company+location,haering precision usa lp||carroll county,haering precision usa lp,matched_exact,GNEM - Auto Landscape Lat Long Updated.xlsx,Sheet1,Haering Precision USA LP,Carroll County,"5000 Frontage Rd, Buford, GA 30518",,,Buford,,Carroll,34.2328208,-83.8634499,False,False,False,False,False,insufficient_location_consistency
71,Haering Precision USA LP,"Dahlonega, Lumpkin County",Dahlonega,Lumpkin,Hall,company+location,haering precision usa lp||dahlonega lumpkin county,haering precision usa lp,matched_exact,GNEM - Auto Landscape Lat Long Updated.xlsx,Sheet1,Haering Precision USA LP,"Dahlonega, Lumpkin County","5000 Frontage Rd, Buford, GA 30518",,Dahlonega,Buford,,Lumpkin,34.2328208,-83.8634499,False,False,False,True,False,city_conflict
72,Hanon Systems USA LLC,"Griffin, Spalding County",Griffin,Spalding,,company+location,hanon systems usa llc||griffin spalding county,hanon systems usa llc,matched_exact,GNEM - Auto Landscape Lat Long Updated.xlsx,Sheet1,Hanon Systems USA LLC,"Griffin, Spalding County","400 Hanon Dr, Shorter, GA 36075",,Griffin,Shorter,,Spalding,32.4705166,-85.8969782,True,True,False,True,False,outside_reference_geometry
73,HELLA Automotive Sales Inc.,"Gainesville, Hall County",Gainesville,Hall,Cobb,company+location,hella automotive sales inc||gainesville hall county,hella automotive sales inc,matched_exact,GNEM - Auto Landscape Lat Long Updated.xlsx,Sheet1,HELLA Automotive Sales Inc.,"Gainesville, Hall County","2018 Powers Ferry Rd SE, Suite 400, Atlanta, GA 30339",,Gainesville,Atlanta,,Hall,33.9022104,-84.4579122,False,False,False,True,False,city_conflict
74,HEXPOL Compounding Corp.,"Decatur, DeKalb County",Decatur,Dekalb,Spalding,company+location,hexpol compounding corp||decatur dekalb county,hexpol compounding corp,matched_exact,GNEM - Auto Landscape Lat Long Updated.xlsx,Sheet1,HEXPOL Compounding Corp.,"Decatur, DeKalb County","1020 Plantation Way, Griffin, GA 30224",,Decatur,Griffin,,Dekalb,33.2928001,-84.3008919,False,False,False,True,False,city_conflict
75,Hitachi Astemo,"Fayetteville, Fayette County",Fayetteville,Fayette,,company+location,hitachi astemo||fayetteville fayette county,hitachi astemo,matched_exact,GNEM - Auto Landscape Lat Long Updated.xlsx,Sheet1,Hitachi Astemo,"Fayetteville, Fayette County","400 Hanon Dr, Shorter, GA 36075",,Fayetteville,Shorter,,Fayette,32.4705166,-85.8969782,True,True,False,True,False,outside_reference_geometry
76,Hitachi Astemo Americas Inc.,Coweta County,,Coweta,,company+location,hitachi astemo americas inc||coweta county,hitachi astemo americas inc,matched_exact,GNEM - Auto Landscape Lat Long Updated.xlsx,Sheet1,Hitachi Astemo Americas Inc.,Coweta County,"400 Hanon Dr, Shorter, GA 36075",,,Shorter,,Coweta,32.4705166,-85.8969782,True,True,False,False,False,outside_reference_geometry
77,Hollingsworth & Vose Co.,"Bainbridge, Decatur County",Bainbridge,Decatur,Pulaski,company+location,hollingsworth vose co||bainbridge decatur county,hollingsworth vose co,matched_exact,GNEM - Auto Landscape Lat Long Updated.xlsx,Sheet1,Hollingsworth & Vose Co.,"Bainbridge, Decatur County","111 Hollingsworth & Vose Rd, Hawkinsville, GA 31036",,Bainbridge,Hawkinsville,,Decatur,32.2835422,-83.4667907,False,False,False,True,False,city_conflict
78,Honda Development & Manufacturing,"Pembroke, Bryan County",Pembroke,Bryan,Cherokee,company+location,honda development manufacturing||pembroke bryan county,honda development manufacturing,matched_exact,GNEM - Auto Landscape Lat Long Updated.xlsx,Sheet1,Honda Development & Manufacturing,"Pembroke, Bryan County","1000 Honda Dr, Tallapoosa, GA 30176",,Pembroke,Tallapoosa,,Bryan,34.2575874,-84.5070413,False,False,False,True,False,city_conflict
79,Hwashin,"Jefferson, Jackson County",Jefferson,Jackson,Haralson,company+location,hwashin||jefferson jackson county,hwashin,matched_exact,GNEM - Auto Landscape Lat Long Updated.xlsx,Sheet1,Hwashin,"Jefferson, Jackson County","1465 Troup Industrial Blvd, LaGrange, GA 30240",,Jefferson,Lagrange,,Jackson,33.6931709,-85.2753961,False,False,False,True,False,city_conflict
80,Hyundai & LG Energy Solution (LGES),"Cumming, Forsyth County",Cumming,Forsyth,,company+location,hyundai lg energy solution lges||cumming forsyth county,hyundai lg energy solution lges,matched_exact,GNEM - Auto Landscape Lat Long Updated.xlsx,Sheet1,Hyundai & LG Energy Solution (LGES),"Cumming, Forsyth County","700 Hyundai Blvd, Ellabell, GA 31308",,Cumming,Ellabell,,Forsyth,22.093612,82.149816,True,True,False,True,False,outside_reference_geometry
81,Hyundai Industrial Co.,"Valdosta, Lowndes County",Valdosta,Lowndes,,company+location,hyundai industrial co||valdosta lowndes county,hyundai industrial co,matched_exact,GNEM - Auto Landscape Lat Long Updated.xlsx,Sheet1,Hyundai Industrial Co.,"Valdosta, Lowndes County","700 Hyundai Blvd, Ellabell, GA 31308",,Valdosta,Ellabell,,Lowndes,22.093612,82.149816,True,True,False,True,False,outside_reference_geometry
82,Hyundai MOBIS (Georgia),"Fayetteville, Fayette County",Fayetteville,Fayette,Troup,company+location,hyundai mobis georgia||fayetteville fayette county,hyundai mobis georgia,matched_exact,GNEM - Auto Landscape Lat Long Updated.xlsx,Sheet1,Hyundai MOBIS (Georgia),"Fayetteville, Fayette County","300 Hyundai MOBIS Dr, West Point, GA 31833",,Fayetteville,West Point,,Fayette,32.8772531,-85.183728,False,False,False,True,False,city_conflict
83,Hyundai Motor Group,"McDonough, Henry County",Mcdonough,Henry,Bryan,company+location,hyundai motor group||mcdonough henry county,hyundai motor group,matched_exact,GNEM - Auto Landscape Lat Long Updated.xlsx,Sheet1,Hyundai Motor Group,"McDonough, Henry County","700 Hyundai Blvd, Ellabell, GA 31308",,Mcdonough,Ellabell,,Henry,32.159233,-81.502963,False,False,False,True,False,city_conflict
84,Hyundai Transys Georgia Powertrain,"Dublin, Laurens County",Dublin,Laurens,Troup,company+location,hyundai transys georgia powertrain||dublin laurens county,hyundai transys georgia powertrain,matched_exact,GNEM - Auto Landscape Lat Long Updated.xlsx,Sheet1,Hyundai Transys Georgia Powertrain,"Dublin, Laurens County","100 Powertrain Way, West Point, GA 31833",,Dublin,West Point,,Laurens,32.903183,-85.159941,False,False,False,True,False,city_conflict
85,Hyundai Transys Georgia Seating Systems,"Marietta, Cobb County",Marietta,Cobb,Troup,company+location,hyundai transys georgia seating systems||marietta cobb county,hyundai transys georgia seating systems,matched_exact,GNEM - Auto Landscape Lat Long Updated.xlsx,Sheet1,Hyundai Transys Georgia Seating Systems,"Marietta, Cobb County","801 Transys Pkwy, West Point, GA 31833",,Marietta,West Point,,Cobb,32.8772531,-85.183728,False,False,False,True,False,city_conflict
86,IMMI,"Jefferson, Jackson County",Jefferson,Jackson,Laurens,company+location,immi||jefferson jackson county,immi,matched_exact,GNEM - Auto Landscape Lat Long Updated.xlsx,Sheet1,IMMI,"Jefferson, Jackson County","2002 Industrial Park Dr, Dublin, GA 31021",,Jefferson,Dublin,,Jackson,32.511763,-82.923552,False,False,False,True,False,city_conflict
87,IMS Gear Georgia Inc.,"Fayetteville, Fayette County",Fayetteville,Fayette,Gwinnett,company+location,ims gear georgia inc||fayetteville fayette county,ims gear georgia inc,matched_exact,GNEM - Auto Landscape Lat Long Updated.xlsx,Sheet1,IMS Gear Georgia Inc.,"Fayetteville, Fayette County","300 Satellite Blvd NE, Suwanee, GA 30024",,Fayetteville,Suwanee,,Fayette,34.035115,-84.064265,False,False,False,True,False,city_conflict
88,Inalfa Roof Systems Inc.,"Lawrenceville, Gwinnett County",Lawrenceville,Gwinnett,Cobb,company+location,inalfa roof systems inc||lawrenceville gwinnett county,inalfa roof systems inc,matched_exact,GNEM - Auto Landscape Lat Long Updated.xlsx,Sheet1,Inalfa Roof Systems Inc.,"Lawrenceville, Gwinnett County","100 Inalfa Dr, Acworth, GA 30102",,Lawrenceville,Acworth,,Gwinnett,34.07068,-84.589406,False,False,False,True,False,city_conflict
89,JAC Products Inc.,"Clarkesville, Habersham County",Clarkesville,Habersham,Jackson,company+location,jac products inc||clarkesville habersham county,jac products inc,matched_exact,GNEM - Auto Landscape Lat Long Updated.xlsx,Sheet1,JAC Products Inc.,"Clarkesville, Habersham County","120 Logistics Pkwy, Jefferson, GA 30549",,Clarkesville,Jefferson,,Habersham,34.10601,-83.589021,False,False,False,True,False,city_conflict
90,Jefferson Southern Corp.,"Dahlonega, Lumpkin County",Dahlonega,Lumpkin,Forsyth,company+location,jefferson southern corp||dahlonega lumpkin county,jefferson southern corp,matched_exact,GNEM - Auto Landscape Lat Long Updated.xlsx,Sheet1,Jefferson Southern Corp.,"Dahlonega, Lumpkin County","1 Jefferson Southern Dr, Commerce, GA 30529",,Dahlonega,Commerce,,Lumpkin,34.197573,-84.0452959,False,False,False,True,False,city_conflict
91,Jefferson Southern Corporation,"Monroe, Walton County",Monroe,Walton,Forsyth,company+location,jefferson southern corporation||monroe walton county,jefferson southern corporation,matched_exact,GNEM - Auto Landscape Lat Long Updated.xlsx,Sheet1,Jefferson Southern Corporation,"Monroe, Walton County","1 Jefferson Southern Dr, Commerce, GA 30529",,Monroe,Commerce,,Walton,34.197573,-84.0452959,False,False,False,True,False,city_conflict
92,"Joon Georgia, Inc.",Troup County,,Troup,Chattahoochee,company+location,joon georgia inc||troup county,joon georgia inc,matched_exact,GNEM - Auto Landscape Lat Long Updated.xlsx,Sheet1,"Joon Georgia, Inc.",Troup County,"100 Industrial Park Rd, West Point, GA 31833",,,West Point,,Troup,32.314089,-84.78927,False,False,False,False,False,insufficient_location_consistency
93,JTEKT North America Corp.,"Canton, Cherokee County",Canton,Cherokee,Jackson,company+location,jtekt north america corp||canton cherokee county,jtekt north america corp,matched_exact,GNEM - Auto Landscape Lat Long Updated.xlsx,Sheet1,JTEKT North America Corp.,"Canton, Cherokee County","301 Teco Dr, Pendergrass, GA 30567",,Canton,Pendergrass,,Cherokee,34.130329,-83.7648529,False,False,False,True,False,city_conflict
94,Kautex Inc.,Carroll County,,Carroll,Rabun,company+location,kautex inc||carroll county,kautex inc,matched_exact,GNEM - Auto Landscape Lat Long Updated.xlsx,Sheet1,Kautex Inc.,Carroll County,"100 Kautex Dr, Lavonia, GA 30553",,,Lavonia,,Carroll,34.968226,-83.490631,False,False,False,False,False,insufficient_location_consistency
95,Kia Georgia Inc.,"Appling, Columbia County",Appling,Columbia,Troup,company+location,kia georgia inc||appling columbia county,kia georgia inc,matched_exact,GNEM - Auto Landscape Lat Long Updated.xlsx,Sheet1,Kia Georgia Inc.,"Appling, Columbia County","1025 Kia Blvd, West Point, GA 31833",,Appling,West Point,,Columbia,32.9322549,-85.1253523,False,False,False,True,False,city_conflict
96,KTX America Corporation,"Springfield, Effingham County",Springfield,Effingham,Meriwether,company+location,ktx america corporation||springfield effingham county,ktx america corporation,matched_exact,GNEM - Auto Landscape Lat Long Updated.xlsx,Sheet1,KTX America Corporation,"Springfield, Effingham County","205 KTX Dr, LaGrange, GA 30240",,Springfield,Lagrange,,Effingham,33.163387,-84.766589,False,False,False,True,False,city_conflict
97,Kumho Tire USA Inc.,Troup County,,Troup,Bibb,company+location,kumho tire usa inc||troup county,kumho tire usa inc,matched_exact,GNEM - Auto Landscape Lat Long Updated.xlsx,Sheet1,Kumho Tire USA Inc.,Troup County,"1 Kumho Dr, Macon, GA 31216",,,Macon,,Troup,32.8406946,-83.6324022,False,False,False,False,False,insufficient_location_consistency
98,Kyungshin America Corp.,Troup County,,Troup,Troup,company+location,kyungshin america corp||troup county,kyungshin america corp,matched_exact,GNEM - Auto Landscape Lat Long Updated.xlsx,Sheet1,Kyungshin America Corp.,Troup County,"85 Kyungshin Dr, West Point, GA 31833",,,West Point,,Troup,32.8772531,-85.183728,False,False,False,False,True,geo_usable
99,Lark United Manufacturing Inc.,"Gainesville, Hall County",Gainesville,Hall,Laurens,company+location,lark united manufacturing inc||gainesville hall county,lark united manufacturing inc,matched_exact,GNEM - Auto Landscape Lat Long Updated.xlsx,Sheet1,Lark United Manufacturing Inc.,"Gainesville, Hall County","200 Industrial Blvd, Dublin, GA 31021",,Gainesville,Dublin,,Hall,32.5320682,-82.950167,False,False,False,True,False,city_conflict
100,Lear Corporation,"Cartersville, Bartow County",Cartersville,Bartow,Troup,company+location,lear corporation||cartersville bartow county,lear corporation,matched_exact,GNEM - Auto Landscape Lat Long Updated.xlsx,Sheet1,Lear Corporation,"Cartersville, Bartow County","100 Lear Dr, Hammond Industrial Park, GA 30240",,Cartersville,Hammond Industrial Park,,Bartow,33.051868,-85.035353,False,False,False,True,False,city_conflict
101,Lehigh Technologies Inc.,"Rome, Floyd County",Rome,Floyd,Walton,company+location,lehigh technologies inc||rome floyd county,lehigh technologies inc,matched_exact,GNEM - Auto Landscape Lat Long Updated.xlsx,Sheet1,Lehigh Technologies Inc.,"Rome, Floyd County","1000 New Horizons Way, Tucker, GA 30084",,Rome,Tucker,,Floyd,33.760895,-83.862556,False,False,False,True,False,city_conflict
102,Linde + Wiemann,Troup County,,Troup,Laurens,company+location,linde wiemann||troup county,linde wiemann,matched_exact,GNEM - Auto Landscape Lat Long Updated.xlsx,Sheet1,Linde + Wiemann,Troup County,"200 Linde Wiemann Way, Dublin, GA 31021",,,Dublin,,Troup,32.493414,-82.943064,False,False,False,False,False,insufficient_location_consistency
103,Lund International Inc.,"Savannah, Chatham County",Savannah,Chatham,Morgan,company+location,lund international inc||savannah chatham county,lund international inc,matched_exact,GNEM - Auto Landscape Lat Long Updated.xlsx,Sheet1,Lund International Inc.,"Savannah, Chatham County","189 Excalibur Dr, Madison, GA 30650",,Savannah,Madison,,Chatham,33.589481,-83.518495,False,False,False,True,False,city_conflict
104,Lund International Inc./Ventshade Division,"Statesboro, Bulloch County",Statesboro,Bulloch,Morgan,company+location,lund international inc ventshade division||statesboro bulloch county,lund international inc ventshade division,matched_exact,GNEM - Auto Landscape Lat Long Updated.xlsx,Sheet1,Lund International Inc./Ventshade Division,"Statesboro, Bulloch County","189 Excalibur Dr, Madison, GA 30650",,Statesboro,Madison,,Bulloch,33.589481,-83.518495,False,False,False,True,False,city_conflict
105,Lyle Industries Inc.,"Buchanan, Haralson County",Buchanan,Haralson,Dawson,company+location,lyle industries inc||buchanan haralson county,lyle industries inc,matched_exact,GNEM - Auto Landscape Lat Long Updated.xlsx,Sheet1,Lyle Industries Inc.,"Buchanan, Haralson County","715 Lyle Industrial Dr, Dawsonville, GA 30534",,Buchanan,Dawsonville,,Haralson,34.3593919607897,-84.0532282608105,False,False,False,True,False,city_conflict
106,Lyle Industries Inc.,"Rome, Floyd County",Rome,Floyd,Dawson,company+location,lyle industries inc||rome floyd county,lyle industries inc,matched_exact,GNEM - Auto Landscape Lat Long Updated.xlsx,Sheet1,Lyle Industries Inc.,"Rome, Floyd County","715 Lyle Industrial Dr, Dawsonville, GA 30534",,Rome,Dawsonville,,Floyd,34.3589668332603,-84.0531424301202,False,False,False,True,False,city_conflict
107,Mack Trucks,"Savannah, Chatham County",Savannah,Chatham,Lowndes,company+location,mack trucks||savannah chatham county,mack trucks,matched_exact,GNEM - Auto Landscape Lat Long Updated.xlsx,Sheet1,Mack Trucks,"Savannah, Chatham County","1525 Madison Hwy, Dublin, GA 31021",,Savannah,Dublin,,Chatham,30.804784,-83.273804,False,False,False,True,False,city_conflict
108,Magna International,"Augusta, Richmond County",Augusta,Richmond,Carroll,company+location,magna international||augusta richmond county,magna international,matched_exact,GNEM - Auto Landscape Lat Long Updated.xlsx,Sheet1,Magna International,"Augusta, Richmond County","250 Magna Dr, Carrollton, GA 30117",,Augusta,Carrollton,,Richmond,33.574772,-85.050522,False,False,False,True,False,city_conflict
109,Mando America Corp.,"Dublin, Laurens County",Dublin,Laurens,Meriwether,company+location,mando america corp||dublin laurens county,mando america corp,matched_exact,GNEM - Auto Landscape Lat Long Updated.xlsx,Sheet1,Mando America Corp.,"Dublin, Laurens County","100 Mando Dr, Hogansville, GA 30230",,Dublin,Hogansville,,Laurens,33.1709673066386,-84.8589919386904,False,False,False,True,False,city_conflict
110,Master Craft Engineering Inc.,"Savannah, Chatham County",Savannah,Chatham,Franklin,company+location,master craft engineering inc||savannah chatham county,master craft engineering inc,matched_exact,GNEM - Auto Landscape Lat Long Updated.xlsx,Sheet1,Master Craft Engineering Inc.,"Savannah, Chatham County","1000 Mastercraft Ln, Lavonia, GA 30553",,Savannah,Lavonia,,Chatham,34.408031,-83.144241,False,False,False,True,False,city_conflict
111,MAT Heavy Duty,"Lawrenceville, Gwinnett County",Lawrenceville,Gwinnett,Gwinnett,company+location,mat heavy duty||lawrenceville gwinnett county,mat heavy duty,matched_exact,GNEM - Auto Landscape Lat Long Updated.xlsx,Sheet1,MAT Heavy Duty,"Lawrenceville, Gwinnett County","555 Satellite Blvd NW, Suwanee, GA 30024",,Lawrenceville,Suwanee,,Gwinnett,34.0278743,-84.0668031,False,False,False,True,False,city_conflict
112,Maxxis International USA,"La Fayette, Walker County",La Fayette,Walker,Clayton,company+location,maxxis international usa||la fayette walker county,maxxis international usa,matched_exact,GNEM - Auto Landscape Lat Long Updated.xlsx,Sheet1,Maxxis International USA,"La Fayette, Walker County","100 International Pkwy, Suwanee, GA 30024",,La Fayette,Suwanee,,Walker,33.6352704,-84.3965777,False,False,False,True,False,city_conflict
113,Mercedes-Benz USA LLC,"Cedartown, Polk County",Cedartown,Polk,Fulton,company+location,mercedes benz usa llc||cedartown polk county,mercedes benz usa llc,matched_exact,GNEM - Auto Landscape Lat Long Updated.xlsx,Sheet1,Mercedes-Benz USA LLC,"Cedartown, Polk County","1 Mercedes-Benz Dr, Sandy Springs, GA 30328",,Cedartown,Sandy Springs,,Polk,33.9345221674192,-84.3634150192005,False,False,False,True,False,city_conflict
114,Michelin Tread Technologies,"Lawrenceville, Gwinnett County",Lawrenceville,Gwinnett,,company+location,michelin tread technologies||lawrenceville gwinnett county,michelin tread technologies,matched_exact,GNEM - Auto Landscape Lat Long Updated.xlsx,Sheet1,Michelin Tread Technologies,"Lawrenceville, Gwinnett County","1 Parkway South Blvd, Greenville, SC 29615",,Lawrenceville,Greenville,,Gwinnett,34.8611177082749,-82.258199703858,True,True,False,True,False,outside_reference_geometry
115,Milliken & Co./Valway Plant,"Greenville, Meriwether County",Greenville,Meriwether,Troup,company+location,milliken co valway plant||greenville meriwether county,milliken co valway plant,matched_exact,GNEM - Auto Landscape Lat Long Updated.xlsx,Sheet1,Milliken & Co./Valway Plant,"Greenville, Meriwether County","920 Milliken Rd, LaGrange, GA 30241",,Greenville,Lagrange,,Meriwether,33.050989,-85.094007,False,False,False,True,False,city_conflict
116,Minebea AccessSolutions USA Inc.,"Atlanta, Fulton County",Atlanta,Fulton,Fulton,company+location,minebea accesssolutions usa inc||atlanta fulton county,minebea accesssolutions usa inc,matched_exact,GNEM - Auto Landscape Lat Long Updated.xlsx,Sheet1,Minebea AccessSolutions USA Inc.,"Atlanta, Fulton County","200 Access Way, Gainesville, GA 30501",,Atlanta,Gainesville,,Fulton,33.7654713,-84.4239872,False,False,False,True,False,city_conflict
117,Mobis Alabama LLC,"Gainesville, Hall County",Gainesville,Hall,Troup,company+location,mobis alabama llc||gainesville hall county,mobis alabama llc,matched_exact,GNEM - Auto Landscape Lat Long Updated.xlsx,Sheet1,Mobis Alabama LLC,"Gainesville, Hall County","300 Hyundai MOBIS Dr, West Point, GA 31833",,Gainesville,West Point,,Hall,32.9150013591105,-85.123997845357,False,False,False,True,False,city_conflict
118,MollerTech LLC,"Toccoa, Stephens County",Toccoa,Stephens,Whitfield,company+location,mollertech llc||toccoa stephens county,mollertech llc,matched_exact,GNEM - Auto Landscape Lat Long Updated.xlsx,Sheet1,MollerTech LLC,"Toccoa, Stephens County","100 Mollertech Dr, Dalton, GA 30721",,Toccoa,Dalton,,Stephens,34.788493,-84.91381,False,False,False,True,False,city_conflict
119,Morgan Corp.,"Lawrenceville, Gwinnett County",Lawrenceville,Gwinnett,,company+location,morgan corp||lawrenceville gwinnett county,morgan corp,matched_exact,GNEM - Auto Landscape Lat Long Updated.xlsx,Sheet1,Morgan Corp.,"Lawrenceville, Gwinnett County","15 Morgan Center Dr, Morganton, NC 28655",,Lawrenceville,Morganton,,Gwinnett,35.754058,-81.667538,True,True,False,True,False,outside_reference_geometry
120,Murata Electronics North America Inc.,"Covington, Newton County",Covington,Newton,Paulding,company+location,murata electronics north america inc||covington newton county,murata electronics north america inc,matched_exact,GNEM - Auto Landscape Lat Long Updated.xlsx,Sheet1,Murata Electronics North America Inc.,"Covington, Newton County","1000 Corporate Dr, Smyrna, GA 30080",,Covington,Smyrna,,Newton,33.8866538,-84.783561,False,False,False,True,False,city_conflict
121,Neaton Rome Inc.,"Hamilton, Harris County",Hamilton,Harris,Douglas,company+location,neaton rome inc||hamilton harris county,neaton rome inc,matched_exact,GNEM - Auto Landscape Lat Long Updated.xlsx,Sheet1,Neaton Rome Inc.,"Hamilton, Harris County","1 Neaton Dr, Rome, GA 30161",,Hamilton,Rome,,Harris,33.766217,-84.713912,False,False,False,True,False,city_conflict
122,Nidec Elesys Americas Corp.,"Metter, Candler County",Metter,Candler,Forsyth,company+location,nidec elesys americas corp||metter candler county,nidec elesys americas corp,matched_exact,GNEM - Auto Landscape Lat Long Updated.xlsx,Sheet1,Nidec Elesys Americas Corp.,"Metter, Candler County","3900 Lakefield Ct, Suwanee, GA 30024",,Metter,Suwanee,,Candler,34.064876,-84.156737,False,False,False,True,False,city_conflict
123,NIFCO KTW America Corp.,Troup County,,Troup,Stephens,company+location,nifco ktw america corp||troup county,nifco ktw america corp,matched_exact,GNEM - Auto Landscape Lat Long Updated.xlsx,Sheet1,NIFCO KTW America Corp.,Troup County,"100 Nifco Way, Toccoa, GA 30577",,,Toccoa,,Troup,34.5179964289089,-83.2222868993427,False,False,False,False,False,insufficient_location_consistency
124,Nile Automotive,"Dalton, Whitfield County",Dalton,Whitfield,Forsyth,company+location,nile automotive||dalton whitfield county,nile automotive,matched_exact,GNEM - Auto Landscape Lat Long Updated.xlsx,Sheet1,Nile Automotive,"Dalton, Whitfield County","4490 Alicia Lane, Cumming, GA 30028",,Dalton,Cumming,,Whitfield,34.2861491093215,-84.0807175267039,False,False,False,True,False,city_conflict
125,Nisshinbo Automotive Manufacturing Inc.,"Gainesville, Hall County",Gainesville,Hall,Newton,company+location,nisshinbo automotive manufacturing inc||gainesville hall county,nisshinbo automotive manufacturing inc,matched_exact,GNEM - Auto Landscape Lat Long Updated.xlsx,Sheet1,Nisshinbo Automotive Manufacturing Inc.,"Gainesville, Hall County","14187 Nisshinbo Drive, Covington, GA 30014",,Gainesville,Covington,,Hall,33.627596641273,-83.8396850708471,False,False,False,True,False,city_conflict
126,Nivel Parts & Manufacturing Co. LLC,"Savannah, Chatham County",Savannah,Chatham,Grady,company+location,nivel parts manufacturing co llc||savannah chatham county,nivel parts manufacturing co llc,matched_exact,GNEM - Auto Landscape Lat Long Updated.xlsx,Sheet1,Nivel Parts & Manufacturing Co. LLC,"Savannah, Chatham County","2051 2nd Ave NE, Cairo, GA 39828",,Savannah,Cairo,,Chatham,30.8796091793369,-84.184908370919,False,False,False,True,False,city_conflict
127,Novelis Inc.,"Gainesville, Hall County",Gainesville,Hall,Fulton,company+location,novelis inc||gainesville hall county,novelis inc,matched_exact,GNEM - Auto Landscape Lat Long Updated.xlsx,Sheet1,Novelis Inc.,"Gainesville, Hall County","3560 Lenox Rd NE, Suite 2000, Atlanta, GA 30326",,Gainesville,Atlanta,,Hall,33.8540394890331,-84.3628188393643,False,False,False,True,False,city_conflict
128,Novelis Inc.,"Trenton, Dade County",Trenton,Dade,Fulton,company+location,novelis inc||trenton dade county,novelis inc,matched_exact,GNEM - Auto Landscape Lat Long Updated.xlsx,Sheet1,Novelis Inc.,"Trenton, Dade County","3560 Lenox Rd NE, Suite 2000, Atlanta, GA 30326",,Trenton,Atlanta,,Dade,33.8542055150128,-84.3628141775477,False,False,False,True,False,city_conflict
129,Novelis Inc.,"Lawrenceville, Gwinnett County",Lawrenceville,Gwinnett,Fulton,company+location,novelis inc||lawrenceville gwinnett county,novelis inc,matched_exact,GNEM - Auto Landscape Lat Long Updated.xlsx,Sheet1,Novelis Inc.,"Lawrenceville, Gwinnett County","3560 Lenox Rd NE, Suite 2000, Atlanta, GA 30326",,Lawrenceville,Atlanta,,Gwinnett,33.8541642345505,-84.3628202675058,False,False,False,True,False,city_conflict
130,NVH Korea,"Greenville, Meriwether County",Greenville,Meriwether,Henry,company+location,nvh korea||greenville meriwether county,nvh korea,matched_exact,GNEM - Auto Landscape Lat Long Updated.xlsx,Sheet1,NVH Korea,"Greenville, Meriwether County","120 Colvin Drive, Locust Grove, GA 30248",,Greenville,Locust Grove,,Meriwether,33.3690335423479,-84.120730447218,False,False,False,True,False,city_conflict
131,Oneda Corp.,"Dalton, Whitfield County",Dalton,Whitfield,Hall,company+location,oneda corp||dalton whitfield county,oneda corp,matched_exact,GNEM - Auto Landscape Lat Long Updated.xlsx,Sheet1,Oneda Corp.,"Dalton, Whitfield County","2157 Atlanta Highway, Gainesville, GA 30504",,Dalton,Gainesville,,Whitfield,34.2525104,-83.8448804,False,False,False,True,False,city_conflict
132,OTR Wheel Engineering Inc.,"Cordele, Crisp County",Cordele,Crisp,Floyd,company+location,otr wheel engineering inc||cordele crisp county,otr wheel engineering inc,matched_exact,GNEM - Auto Landscape Lat Long Updated.xlsx,Sheet1,OTR Wheel Engineering Inc.,"Cordele, Crisp County","6 Riverside Industrial Park, Rome, GA 30161",,Cordele,Rome,,Crisp,34.2805120276445,-85.1648883768461,False,False,False,True,False,city_conflict
133,Paccar,"Trenton, Dade County",Trenton,Dade,Clayton,company+location,paccar||trenton dade county,paccar,matched_exact,GNEM - Auto Landscape Lat Long Updated.xlsx,Sheet1,Paccar,"Trenton, Dade County","6853 Southlake Pkwy, Morrow, GA 30260",,Trenton,Morrow,,Dade,33.5675979753355,-84.3387340894887,False,False,False,True,False,city_conflict
134,PAI Industries Inc.,Troup County,,Troup,Cobb,company+location,pai industries inc||troup county,pai industries inc,matched_exact,GNEM - Auto Landscape Lat Long Updated.xlsx,Sheet1,PAI Industries Inc.,Troup County,"2125 Clay Drive, Mableton, GA 30126",,,Mableton,,Troup,33.9234048,-84.546699,False,False,False,False,False,insufficient_location_consistency
135,Pak-Lite Inc.,"Rome, Floyd County",Rome,Floyd,Gwinnett,company+location,pak lite inc||rome floyd county,pak lite inc,matched_exact,GNEM - Auto Landscape Lat Long Updated.xlsx,Sheet1,Pak-Lite Inc.,"Rome, Floyd County","550 Old Peachtree Rd NW, Suwanee, GA 30024",,Rome,Suwanee,,Floyd,34.0114815633921,-84.0575044342891,False,False,False,True,False,city_conflict
136,Panasonic Automotive Systems Co.,"Hinesville, Liberty County",Hinesville,Liberty,Fayette,company+location,panasonic automotive systems co||hinesville liberty county,panasonic automotive systems co,matched_exact,GNEM - Auto Landscape Lat Long Updated.xlsx,Sheet1,Panasonic Automotive Systems Co.,"Hinesville, Liberty County","1 Panasonic Way, Peachtree City, GA 30269",,Hinesville,Peachtree City,,Liberty,33.3586677099571,-84.5593070469745,False,False,False,True,False,city_conflict
137,Panasonic Automotive Systems Co.,"Cartersville, Bartow County",Cartersville,Bartow,Fayette,company+location,panasonic automotive systems co||cartersville bartow county,panasonic automotive systems co,matched_exact,GNEM - Auto Landscape Lat Long Updated.xlsx,Sheet1,Panasonic Automotive Systems Co.,"Cartersville, Bartow County","1 Panasonic Way, Peachtree City, GA 30269",,Cartersville,Peachtree City,,Bartow,33.3540321602237,-84.554642968484,False,False,False,True,False,city_conflict
138,Panduit Corp.,"Cartersville, Bartow County",Cartersville,Bartow,Forsyth,company+location,panduit corp||cartersville bartow county,panduit corp,matched_exact,GNEM - Auto Landscape Lat Long Updated.xlsx,Sheet1,Panduit Corp.,"Cartersville, Bartow County","1819 Atlanta Hwy, Cumming, GA 30040",,Cartersville,Cumming,,Bartow,34.1661720605728,-84.1654472334863,False,False,False,True,False,city_conflict
139,Peerless-Winsmith Inc.,"Statesboro, Bulloch County",Statesboro,Bulloch,Hall,company+location,peerless winsmith inc||statesboro bulloch county,peerless winsmith inc,matched_exact,GNEM - Auto Landscape Lat Long Updated.xlsx,Sheet1,Peerless-Winsmith Inc.,"Statesboro, Bulloch County","4510 Cantrell Road, Flowery Branch, GA 30542",,Statesboro,Flowery Branch,,Bulloch,34.1933557356756,-83.9074650474823,False,False,False,True,False,city_conflict
140,Perkins Small Engines LLC,"Zebulon, Pike County",Zebulon,Pike,Spalding,company+location,perkins small engines llc||zebulon pike county,perkins small engines llc,matched_exact,GNEM - Auto Landscape Lat Long Updated.xlsx,Sheet1,Perkins Small Engines LLC,"Zebulon, Pike County","325 Green Valley Road, Griffin, GA 30224",,Zebulon,Griffin,,Pike,33.2313080586117,-84.223980728557,False,False,False,True,False,city_conflict
141,Peterson Spring,"Hartwell, Hart County",Hartwell,Hart,Clarke,company+location,peterson spring||hartwell hart county,peterson spring,matched_exact,GNEM - Auto Landscape Lat Long Updated.xlsx,Sheet1,Peterson Spring,"Hartwell, Hart County","600 Old Hull Road, Athens, GA 30601",,Hartwell,Athens,,Hart,33.9865336091146,-83.3410341200327,False,False,False,True,False,city_conflict
142,PHA Body Systems LLC,Carroll County,,Carroll,Chatham,company+location,pha body systems llc||carroll county,pha body systems llc,matched_exact,GNEM - Auto Landscape Lat Long Updated.xlsx,Sheet1,PHA Body Systems LLC,Carroll County,"300 Monahan Drive, Bloomingdale, GA 31302",,,Bloomingdale,,Carroll,32.1009741405683,-81.3560273906067,False,False,False,False,False,insufficient_location_consistency
143,Piedmont Automotive Products Inc.,"Hamilton, Harris County",Hamilton,Harris,Habersham,company+location,piedmont automotive products inc||hamilton harris county,piedmont automotive products inc,matched_exact,GNEM - Auto Landscape Lat Long Updated.xlsx,Sheet1,Piedmont Automotive Products Inc.,"Hamilton, Harris County","1058 Rocky Branch Rd, Clarkesville, GA 30523",,Hamilton,Clarkesville,,Harris,34.6078319,-83.5074298,False,False,False,True,False,city_conflict
144,PIOLAX Corp.,"Rome, Floyd County",Rome,Floyd,Cherokee,company+location,piolax corp||rome floyd county,piolax corp,matched_exact,GNEM - Auto Landscape Lat Long Updated.xlsx,Sheet1,PIOLAX Corp.,"Rome, Floyd County","139 Etowah Industrial Court, Canton, GA 30114",,Rome,Canton,,Floyd,34.2456357508315,-84.4719463416027,False,False,False,True,False,city_conflict
145,Pirelli Tire North America LLC,"Carnesville, Franklin County",Carnesville,Franklin,Dougherty,company+location,pirelli tire north america llc||carnesville franklin county,pirelli tire north america llc,matched_exact,GNEM - Auto Landscape Lat Long Updated.xlsx,Sheet1,Pirelli Tire North America LLC,"Carnesville, Franklin County","2819 Old Dawson Rd, Albany, GA 31707",,Carnesville,Albany,,Franklin,31.6135962,-84.2222845,False,False,False,True,False,city_conflict
146,Porsche Cars North America Inc.,"Cairo, Grady County",Cairo,Grady,Fulton,company+location,porsche cars north america inc||cairo grady county,porsche cars north america inc,matched_exact,GNEM - Auto Landscape Lat Long Updated.xlsx,Sheet1,Porsche Cars North America Inc.,"Cairo, Grady County","1 Porsche Dr, Atlanta, GA 30328",,Cairo,Atlanta,,Grady,33.6520232116159,-84.3985918227493,False,False,False,True,False,city_conflict
147,PPG Industries Inc.,Troup County,,Troup,Whitfield,company+location,ppg industries inc||troup county,ppg industries inc,matched_exact,GNEM - Auto Landscape Lat Long Updated.xlsx,Sheet1,PPG Industries Inc.,Troup County,"500 Enterprise Dr, Calhoun, GA 30701",,,Calhoun,,Troup,34.6994514,-84.948505,False,False,False,False,False,insufficient_location_consistency
148,Propex Operating Co. LLC,"Lawrenceville, Gwinnett County",Lawrenceville,Gwinnett,Chatham,company+location,propex operating co llc||lawrenceville gwinnett county,propex operating co llc,matched_exact,GNEM - Auto Landscape Lat Long Updated.xlsx,Sheet1,Propex Operating Co. LLC,"Lawrenceville, Gwinnett County","490 Chatham Pkwy, Pooler, GA 31322",,Lawrenceville,Pooler,,Gwinnett,32.0941218,-81.1629908,False,False,False,True,False,city_conflict
149,QSR Inc.,"Lawrenceville, Gwinnett County",Lawrenceville,Gwinnett,Clayton,company+location,qsr inc||lawrenceville gwinnett county,qsr inc,matched_exact,GNEM - Auto Landscape Lat Long Updated.xlsx,Sheet1,QSR Inc.,"Lawrenceville, Gwinnett County","135 QSR Rd, LaGrange, GA 30240",,Lawrenceville,Lagrange,,Gwinnett,33.555885,-84.443148,False,False,False,True,False,city_conflict
150,Racemark International LLC,"Calhoun, Gordon County",Calhoun,Gordon,Jones,company+location,racemark international llc||calhoun gordon county,racemark international llc,matched_exact,GNEM - Auto Landscape Lat Long Updated.xlsx,Sheet1,Racemark International LLC,"Calhoun, Gordon County","152 Racemark Dr, Gray, GA 31032",,Calhoun,Gray,,Gordon,32.991607,-83.567362,False,False,False,True,False,city_conflict
151,RealTruck,"Fayetteville, Fayette County",Fayetteville,Fayette,Chattooga,company+location,realtruck||fayetteville fayette county,realtruck,matched_exact,GNEM - Auto Landscape Lat Long Updated.xlsx,Sheet1,RealTruck,"Fayetteville, Fayette County","1656 Airport Rd N, Peachtree City, GA 30269",,Fayetteville,Peachtree City,,Fayette,34.588242,-85.2883229,False,False,False,True,False,city_conflict
152,Rivian Automotive,"Gainesville, Hall County",Gainesville,Hall,Fulton,company+location,rivian automotive||gainesville hall county,rivian automotive,matched_exact,GNEM - Auto Landscape Lat Long Updated.xlsx,Sheet1,Rivian Automotive,"Gainesville, Hall County","1090 Roberts Dr NW, Atlanta, GA 30318",,Gainesville,Atlanta,,Hall,33.720227,-84.370567,False,False,False,True,False,city_conflict
153,Robert Bosch LLC,Coweta County,,Coweta,Gwinnett,company+location,robert bosch llc||coweta county,robert bosch llc,matched_exact,GNEM - Auto Landscape Lat Long Updated.xlsx,Sheet1,Robert Bosch LLC,Coweta County,"6330 W Broad St, Flowery Branch, GA 30542",,,Flowery Branch,,Coweta,34.1062368,-84.0326857,False,False,False,False,False,insufficient_location_consistency
154,SAFT America Inc.,Coweta County,,Coweta,Harris,company+location,saft america inc||coweta county,saft america inc,matched_exact,GNEM - Auto Landscape Lat Long Updated.xlsx,Sheet1,SAFT America Inc.,Coweta County,"15621 Hopewell Church Rd, Cataula, GA 31804",,,Cataula,,Coweta,32.8217618,-84.9563284,False,False,False,False,False,insufficient_location_consistency
155,Sejong Georgia LLC,Troup County,,Troup,Jackson,company+location,sejong georgia llc||troup county,sejong georgia llc,matched_exact,GNEM - Auto Landscape Lat Long Updated.xlsx,Sheet1,Sejong Georgia LLC,Troup County,"100 Sejong Way, Jefferson, GA 30549",,,Jefferson,,Troup,34.10601,-83.589021,False,False,False,False,False,insufficient_location_consistency
156,Seohan Auto USA,"Hazlehurst, Davis County",Hazlehurst,Davis,Lamar,company+location,seohan auto usa||hazlehurst davis county,seohan auto usa,matched_exact,GNEM - Auto Landscape Lat Long Updated.xlsx,Sheet1,Seohan Auto USA,"Hazlehurst, Davis County","850 Lamar St, LaGrange, GA 30240",,Hazlehurst,Lagrange,,Davis,33.0528839,-84.1616017,False,False,False,True,False,city_conflict
157,Seoyon E-HWA,"Hazlehurst, Davis County",Hazlehurst,Davis,Troup,company+location,seoyon e hwa||hazlehurst davis county,seoyon e hwa,matched_exact,GNEM - Auto Landscape Lat Long Updated.xlsx,Sheet1,Seoyon E-HWA,"Hazlehurst, Davis County","200 Seoyon E-HWA Blvd, West Point, GA 31833",,Hazlehurst,West Point,,Davis,32.903183,-85.159941,False,False,False,True,False,city_conflict
158,Seoyon E-Hwa Interior Systems,"Macon, Bibb County",Macon,Bibb,Troup,company+location,seoyon e hwa interior systems||macon bibb county,seoyon e hwa interior systems,matched_exact,GNEM - Auto Landscape Lat Long Updated.xlsx,Sheet1,Seoyon E-Hwa Interior Systems,"Macon, Bibb County","200 Seoyon E-HWA Blvd, West Point, GA 31833",,Macon,West Point,,Bibb,32.8772531,-85.183728,False,False,False,True,False,city_conflict
159,Sewon America Inc.,"Atlanta, Fulton County",Atlanta,Fulton,Troup,company+location,sewon america inc||atlanta fulton county,sewon america inc,matched_exact,GNEM - Auto Landscape Lat Long Updated.xlsx,Sheet1,Sewon America Inc.,"Atlanta, Fulton County","210 Sewon Dr, LaGrange, GA 30241",,Atlanta,Lagrange,,Fulton,33.0501,-85.008963,False,False,False,True,False,city_conflict
160,Sewon America Inc.,"Athens, Clarke County",Athens,Clarke,Troup,company+location,sewon america inc||athens clarke county,sewon america inc,matched_exact,GNEM - Auto Landscape Lat Long Updated.xlsx,Sheet1,Sewon America Inc.,"Athens, Clarke County","210 Sewon Dr, LaGrange, GA 30241",,Athens,Lagrange,,Clarke,33.0501,-85.008963,False,False,False,True,False,city_conflict
161,Sewon America Inc.,"Marietta, Cobb County",Marietta,Cobb,Troup,company+location,sewon america inc||marietta cobb county,sewon america inc,matched_exact,GNEM - Auto Landscape Lat Long Updated.xlsx,Sheet1,Sewon America Inc.,"Marietta, Cobb County","210 Sewon Dr, LaGrange, GA 30241",,Marietta,Lagrange,,Cobb,33.0501,-85.008963,False,False,False,True,False,city_conflict
162,SHIROKI North America Inc,"Dublin, Laurens County",Dublin,Laurens,Clayton,company+location,shiroki north america inc||dublin laurens county,shiroki north america inc,matched_exact,GNEM - Auto Landscape Lat Long Updated.xlsx,Sheet1,SHIROKI North America Inc,"Dublin, Laurens County","100 Shiroki Way, LaGrange, GA 30241",,Dublin,Lagrange,,Laurens,33.558724,-84.44865,False,False,False,True,False,city_conflict
163,SK Battery America,"Hartwell, Hart County",Hartwell,Hart,Bryan,company+location,sk battery america||hartwell hart county,sk battery america,matched_exact,GNEM - Auto Landscape Lat Long Updated.xlsx,Sheet1,SK Battery America,"Hartwell, Hart County","700 Hyundai Blvd, Ellabell, GA 31308",,Hartwell,Ellabell,,Hart,32.159233,-81.502963,False,False,False,True,False,city_conflict
164,SKF USA Inc.,"Carnesville, Franklin County",Carnesville,Franklin,Catoosa,company+location,skf usa inc||carnesville franklin county,skf usa inc,matched_exact,GNEM - Auto Landscape Lat Long Updated.xlsx,Sheet1,SKF USA Inc.,"Carnesville, Franklin County","301 David Fletcher Dr, Ringgold, GA 30736",,Carnesville,Ringgold,,Franklin,34.907514,-85.043812,False,False,False,True,False,city_conflict
165,Solvay Specialty Polymers USA LLC,"Springfield, Effingham County",Springfield,Effingham,Elbert,company+location,solvay specialty polymers usa llc||springfield effingham county,solvay specialty polymers usa llc,matched_exact,GNEM - Auto Landscape Lat Long Updated.xlsx,Sheet1,Solvay Specialty Polymers USA LLC,"Springfield, Effingham County","600 Patterson Ave, Augusta, GA 30901",,Springfield,Augusta,,Effingham,34.1033951,-82.8532769,False,False,False,True,False,city_conflict
166,Southern Switches Corp.,"Blue Ridge, Fannin County",Blue Ridge,Fannin,Lumpkin,company+location,southern switches corp||blue ridge fannin county,southern switches corp,matched_exact,GNEM - Auto Landscape Lat Long Updated.xlsx,Sheet1,Southern Switches Corp.,"Blue Ridge, Fannin County","715 Happy Hollow Rd, Dahlonega, GA 30533",,Blue Ridge,Dahlonega,,Fannin,34.5298911539072,-83.9984152634814,False,False,False,True,False,city_conflict
167,SRG Global Inc.,"Atlanta, Fulton County",Atlanta,Fulton,Newton,company+location,srg global inc||atlanta fulton county,srg global inc,matched_exact,GNEM - Auto Landscape Lat Long Updated.xlsx,Sheet1,SRG Global Inc.,"Atlanta, Fulton County","10116 Industrial Blvd NE, Covington, GA 30014",,Atlanta,Covington,,Fulton,33.6130210157665,-83.8355886824132,False,False,False,True,False,city_conflict
168,Stryten Energy,Troup County,,Troup,Forsyth,company+location,stryten energy||troup county,stryten energy,matched_exact,GNEM - Auto Landscape Lat Long Updated.xlsx,Sheet1,Stryten Energy,Troup County,"5925 Cabot Pkwy, Alpharetta, GA 30005",,,Alpharetta,,Troup,34.1187111,-84.2058867,False,False,False,False,False,insufficient_location_consistency
169,Suhner Manufacturing Corp.,"Douglas, Coffee County",Douglas,Coffee,Floyd,company+location,suhner manufacturing corp||douglas coffee county,suhner manufacturing corp,matched_exact,GNEM - Auto Landscape Lat Long Updated.xlsx,Sheet1,Suhner Manufacturing Corp.,"Douglas, Coffee County","43 Anderson Rd SW, Rome, GA 30161",,Douglas,Rome,,Coffee,34.2085971300834,-85.1899282777942,False,False,False,True,False,city_conflict
170,Sumitomo Electric Wiring Systems,"Baxley, Appling County",Baxley,Appling,,company+location_then_company,sumitomo electric wiring systems||baxley appling county,sumitomo electric wiring systems,no_join_match,,,,,,,,,,,,,False,False,False,False,False,no_join_match
171,SungEel Recycling Park Georgia,"Macon, Bibb County",Macon,Bibb,Gwinnett,company+location,sungeel recycling park georgia||macon bibb county,sungeel recycling park georgia,matched_exact,GNEM - Auto Landscape Lat Long Updated.xlsx,Sheet1,SungEel Recycling Park Georgia,"Macon, Bibb County","3237 Satellite Blvd, Suite 175, Duluth, GA 30096",,Macon,Duluth,,Bibb,33.962713,-84.11336,False,False,False,True,False,city_conflict
172,Superior Essex Inc.,"Pembroke, Bryan County",Pembroke,Bryan,Cobb,company+location,superior essex inc||pembroke bryan county,superior essex inc,matched_exact,GNEM - Auto Landscape Lat Long Updated.xlsx,Sheet1,Superior Essex Inc.,"Pembroke, Bryan County","3600 Cobb International Blvd NW, Kennesaw, GA 30152",,Pembroke,Kennesaw,,Bryan,33.9990198954442,-84.6124810756932,False,False,False,True,False,city_conflict
173,Suzuki Manufacturing of America Corp.,"Monroe, Walton County",Monroe,Walton,Douglas,company+location,suzuki manufacturing of america corp||monroe walton county,suzuki manufacturing of america corp,matched_exact,GNEM - Auto Landscape Lat Long Updated.xlsx,Sheet1,Suzuki Manufacturing of America Corp.,"Monroe, Walton County","1000 McIntosh Trail SW, Rome, GA 30165",,Monroe,Rome,,Walton,33.771861,-84.730029,False,False,False,True,False,city_conflict
174,TCI Powder Coatings,Troup County,,Troup,Schley,company+location,tci powder coatings||troup county,tci powder coatings,matched_exact,GNEM - Auto Landscape Lat Long Updated.xlsx,Sheet1,TCI Powder Coatings,Troup County,"610 Dixon Dr, Ellaville, GA 31806",,,Ellaville,,Troup,32.2336427,-84.2945469,False,False,False,False,False,insufficient_location_consistency
175,TDK Components USA Inc.,"Atlanta, Fulton County",Atlanta,Fulton,Floyd,company+location,tdk components usa inc||atlanta fulton county,tdk components usa inc,matched_exact,GNEM - Auto Landscape Lat Long Updated.xlsx,Sheet1,TDK Components USA Inc.,"Atlanta, Fulton County","4058 Rockmart Rd, Silver Creek, GA 30173",,Atlanta,Silver Creek,,Fulton,34.1773552,-85.1488486,False,False,False,True,False,city_conflict
176,TE Connectivity,"Fort Valley, Peach County",Fort Valley,Peach,Cobb,company+location,te connectivity||fort valley peach county,te connectivity,matched_exact,GNEM - Auto Landscape Lat Long Updated.xlsx,Sheet1,TE Connectivity,"Fort Valley, Peach County","3295 Cobb International Blvd NW, Kennesaw, GA 30152",,Fort Valley,Kennesaw,,Peach,34.0027115,-84.6119832,False,False,False,True,False,city_conflict
177,Teklas USA,Coweta County,,Coweta,Gordon,company+location,teklas usa||coweta county,teklas usa,matched_exact,GNEM - Auto Landscape Lat Long Updated.xlsx,Sheet1,Teklas USA,Coweta County,"320 S Industrial Blvd, Calhoun, GA 30701",,,Calhoun,,Coweta,34.4762350916405,-84.9420289236436,False,False,False,False,False,insufficient_location_consistency
178,Textron Specialized Vehicles,"Augusta, Richmond County",Augusta,Richmond,Richmond,company+location,textron specialized vehicles||augusta richmond county,textron specialized vehicles,matched_exact,GNEM - Auto Landscape Lat Long Updated.xlsx,Sheet1,Textron Specialized Vehicles,"Augusta, Richmond County","1451 Marvin Griffin Rd, Augusta, GA 30906",,Augusta,Augusta,,Richmond,33.3956126,-81.9878236,False,False,False,False,True,geo_usable
179,Thermal Ceramics Inc.,"Jefferson, Jackson County",Jefferson,Jackson,Richmond,company+location,thermal ceramics inc||jefferson jackson county,thermal ceramics inc,matched_exact,GNEM - Auto Landscape Lat Long Updated.xlsx,Sheet1,Thermal Ceramics Inc.,"Jefferson, Jackson County","2190 N Leg Rd, Augusta, GA 30909",,Jefferson,Augusta,,Jackson,33.4565319,-82.0665715,False,False,False,True,False,city_conflict
180,Thomson Plastics Inc.,"Covington, Newton County",Covington,Newton,Walton,company+location,thomson plastics inc||covington newton county,thomson plastics inc,matched_exact,GNEM - Auto Landscape Lat Long Updated.xlsx,Sheet1,Thomson Plastics Inc.,"Covington, Newton County","1440 H D Atha Rd, Monroe, GA 30656",,Covington,Monroe,,Newton,33.774282,-83.7755851,False,False,False,True,False,city_conflict
181,TI Fluid Systems,Georgia (facility presence),Georgia (Facility Presence),,Bartow,company+location,ti fluid systems||georgia facility presence,ti fluid systems,matched_exact,GNEM - Auto Landscape Lat Long Updated.xlsx,Sheet1,TI Fluid Systems,Georgia (facility presence),"2 Swisher Dr, Cartersville, GA 30120",,Georgia (Facility Presence),Cartersville,,,34.1446878814573,-84.7948577272343,False,False,False,True,False,city_conflict
182,TI Fluid Systems,"Atlanta, Fulton County",Atlanta,Fulton,Bartow,company+location,ti fluid systems||atlanta fulton county,ti fluid systems,matched_exact,GNEM - Auto Landscape Lat Long Updated.xlsx,Sheet1,TI Fluid Systems,"Atlanta, Fulton County","2 Swisher Dr, Cartersville, GA 30120",,Atlanta,Cartersville,,Fulton,34.1446878814573,-84.7948577272343,False,False,False,True,False,city_conflict
183,Tie Down Engineering,"Greensboro, Greene County",Greensboro,Greene,Fulton,company+location,tie down engineering||greensboro greene county,tie down engineering,matched_exact,GNEM - Auto Landscape Lat Long Updated.xlsx,Sheet1,Tie Down Engineering,"Greensboro, Greene County","605 Stonehill Dr SW, Atlanta, GA 30336",,Greensboro,Atlanta,,Greene,33.7398598923206,-84.574782339876,False,False,False,True,False,city_conflict
184,TN Americas Holding Inc.,Georgia,Georgia,,Forsyth,company+location,tn americas holding inc||georgia,tn americas holding inc,matched_exact,GNEM - Auto Landscape Lat Long Updated.xlsx,Sheet1,TN Americas Holding Inc.,Georgia,"2200 Pendley Rd, Cumming, GA 30041",,Georgia,Cumming,,,34.1622969342683,-84.162670944466,False,False,False,True,False,city_conflict
185,Toyota Industries Group (TACG-TICA),Georgia,Georgia,,Jackson,company+location,toyota industries group tacg tica||georgia,toyota industries group tacg tica,matched_exact,GNEM - Auto Landscape Lat Long Updated.xlsx,Sheet1,Toyota Industries Group (TACG-TICA),Georgia,"1000 Valentine Industrial Pkwy, Pendergrass, GA 30567",,Georgia,Pendergrass,,,34.1799504745923,-83.6425814297935,False,False,False,True,False,city_conflict
186,Trenton Pressing,Georgia,Georgia,,Dade,company+location,trenton pressing||georgia,trenton pressing,matched_exact,GNEM - Auto Landscape Lat Long Updated.xlsx,Sheet1,Trenton Pressing,Georgia,"505 N Industrial Blvd, Trenton, GA 30752",,Georgia,Trenton,,,34.8787288016289,-85.497643922621,False,False,False,True,False,city_conflict
187,Trenton Pressing Inc.,Georgia,Georgia,,Dade,company+location,trenton pressing inc||georgia,trenton pressing inc,matched_exact,GNEM - Auto Landscape Lat Long Updated.xlsx,Sheet1,Trenton Pressing Inc.,Georgia,"505 N Industrial Blvd, Trenton, GA 30752",,Georgia,Trenton,,,34.8787288016289,-85.497643922621,False,False,False,True,False,city_conflict
188,Valeo,Georgia,Georgia,,,company+location_then_company,valeo||georgia,valeo,no_join_match,,,,,,,,,,,,,False,False,False,False,False,no_join_match
189,Vanguard National Trailer Corp.,Georgia,Georgia,,Dade,company+location,vanguard national trailer corp||georgia,vanguard national trailer corp,matched_exact,GNEM - Auto Landscape Lat Long Updated.xlsx,Sheet1,Vanguard National Trailer Corp.,Georgia,"8 Vanguard Dr, Trenton, GA 30752",,Georgia,Trenton,,,34.886297855747,-85.496884427495,False,False,False,True,False,city_conflict
190,Vernay,Georgia,Georgia,,Spalding,company+location,vernay||georgia,vernay,matched_exact,GNEM - Auto Landscape Lat Long Updated.xlsx,Sheet1,Vernay,Georgia,"804 Greenbelt Pkwy, Griffin, GA 30223",,Georgia,Griffin,,,33.2377968959845,-84.2401653046223,False,False,False,True,False,city_conflict
191,Vista Metals Corp.,Georgia,Georgia,,Bartow,company+location,vista metals corp||georgia,vista metals corp,matched_exact,GNEM - Auto Landscape Lat Long Updated.xlsx,Sheet1,Vista Metals Corp.,Georgia,"800 Martin Luther King Jr Dr, Adairsville, GA 30103",,Georgia,Adairsville,,,34.3676324336592,-84.9069879887994,False,False,False,True,False,city_conflict
192,Voestalpine Automotive Body Parts Inc.,Georgia,Georgia,,Bartow,company+location,voestalpine automotive body parts inc||georgia,voestalpine automotive body parts inc,matched_exact,GNEM - Auto Landscape Lat Long Updated.xlsx,Sheet1,Voestalpine Automotive Body Parts Inc.,Georgia,"4334 Highway 20 SE, Cartersville, GA 30121",,Georgia,Cartersville,,,34.181471,-84.738305,False,False,False,True,False,city_conflict
193,Volvo Cars USA,Georgia,Georgia,,,company+location,volvo cars usa||georgia,volvo cars usa,matched_exact,GNEM - Auto Landscape Lat Long Updated.xlsx,Sheet1,Volvo Cars USA,Georgia,"1800 Volvo Place, Mahwah, NJ 07430",,Georgia,Mahwah,,,41.0740427635951,-74.1712478395491,True,True,False,True,False,outside_reference_geometry
194,Volvo Group North America,Georgia,Georgia,,,company+location,volvo group north america||georgia,volvo group north america,matched_exact,GNEM - Auto Landscape Lat Long Updated.xlsx,Sheet1,Volvo Group North America,Georgia,"7900 National Service Rd, Greensboro, NC 27409",,Georgia,Greensboro,,,36.0818642621738,-79.9684288843386,True,True,False,True,False,outside_reference_geometry
195,Wabash National Corp.,Georgia,Georgia,,Clayton,company+location,wabash national corp||georgia,wabash national corp,matched_exact,GNEM - Auto Landscape Lat Long Updated.xlsx,Sheet1,Wabash National Corp.,Georgia,"2620 Campbell Blvd, Ellenwood, GA 30294",,Georgia,Ellenwood,,,33.6209605672664,-84.3034983995488,False,False,False,True,False,city_conflict
196,Wheelabrator Group Inc.,Georgia,Georgia,,Troup,company+location,wheelabrator group inc||georgia,wheelabrator group inc,matched_exact,GNEM - Auto Landscape Lat Long Updated.xlsx,Sheet1,Wheelabrator Group Inc.,Georgia,"1606 Executive Dr, LaGrange, GA 30240",,Georgia,Lagrange,,,33.0087223514155,-85.0632892294943,False,False,False,True,False,city_conflict
197,WIKA USA,Georgia,Georgia,,Gwinnett,company+location,wika usa||georgia,wika usa,matched_exact,GNEM - Auto Landscape Lat Long Updated.xlsx,Sheet1,WIKA USA,Georgia,"1000 Wiegand Blvd, Lawrenceville, GA 30043",,Georgia,Lawrenceville,,,33.960968631134,-84.052709062173,False,False,False,True,False,city_conflict
198,Woodbridge Foam Corp.,Georgia,Georgia,,Dekalb,company+location,woodbridge foam corp||georgia,woodbridge foam corp,matched_exact,GNEM - Auto Landscape Lat Long Updated.xlsx,Sheet1,Woodbridge Foam Corp.,Georgia,"2399 S Stone Mountain Lithonia Rd, Lithonia, GA 30058",,Georgia,Lithonia,,,33.737555,-84.1198547,False,False,False,True,False,city_conflict
199,Woory Industrial Co.,Georgia,Georgia,,Laurens,company+location,woory industrial co||georgia,woory industrial co,matched_exact,GNEM - Auto Landscape Lat Long Updated.xlsx,Sheet1,Woory Industrial Co.,Georgia,"404 Kellam Rd, Dublin, GA 31021",,Georgia,Dublin,,,32.5286348559853,-82.9311657105471,False,False,False,True,False,city_conflict
200,Yachiyo Manufacturing of America LLC,Georgia,Georgia,,Carroll,company+location,yachiyo manufacturing of america llc||georgia,yachiyo manufacturing of america llc,matched_exact,GNEM - Auto Landscape Lat Long Updated.xlsx,Sheet1,Yachiyo Manufacturing of America LLC,Georgia,"565 Beulah Church Rd, Carrollton, GA 30117",,Georgia,Carrollton,,,33.601430192463,-85.1053708775212,False,False,False,True,False,city_conflict
201,Yamaha Motor Manufacturing Corp.,Georgia,Georgia,,Coweta,company+location,yamaha motor manufacturing corp||georgia,yamaha motor manufacturing corp,matched_exact,GNEM - Auto Landscape Lat Long Updated.xlsx,Sheet1,Yamaha Motor Manufacturing Corp.,Georgia,"1000 Georgia Highway 34E, Newnan, GA",,Georgia,Newnan,,,33.4024771,-84.7323054,False,False,False,True,False,city_conflict
202,Yazaki North America,Georgia,Georgia,,Spalding,company+location,yazaki north america||georgia,yazaki north america,matched_exact,GNEM - Auto Landscape Lat Long Updated.xlsx,Sheet1,Yazaki North America,Georgia,"375 Airport Rd, Griffin, Georgia",,Georgia,Griffin,,,33.2266019,-84.2867725,False,False,False,True,False,city_conflict
203,YKK USA Inc.,Georgia,Georgia,,Cobb,company+location,ykk usa inc||georgia,ykk usa inc,matched_exact,GNEM - Auto Landscape Lat Long Updated.xlsx,Sheet1,YKK USA Inc.,Georgia,"1300 Cobb Industrial Dr, Marietta, GA 30066",,Georgia,Marietta,,,33.9790253535143,-84.5308924242486,False,False,False,True,False,city_conflict
204,ZF Gainesville LLC,Georgia,Georgia,,,company+location,zf gainesville llc||georgia,zf gainesville llc,duplicate_exact_key,,,,,,,,,,,,,False,False,False,False,False,duplicate_exact_key
205,ZF Gainesville LLC,Georgia,Georgia,,,company+location,zf gainesville llc||georgia,zf gainesville llc,duplicate_exact_key,,,,,,,,,,,,,False,False,False,False,False,duplicate_exact_key
206,ZF Gainesville LLC,Georgia,Georgia,,,company+location,zf gainesville llc||georgia,zf gainesville llc,duplicate_exact_key,,,,,,,,,,,,,False,False,False,False,False,duplicate_exact_key
