company_name,labeled_location,address,latitude,longitude,labeled_county,computed_county,location_city,address_city,address_state,outside_polygon,duplicate_cluster_id,duplicate_risk_class,conflict_flags,evidence_score
Michelin Tread Technologies,"Lawrenceville, Gwinnett County","1 Parkway South Blvd, Greenville, SC 29615",34.8611177082749,-82.258199703858,Gwinnett,,Lawrenceville,Greenville,SC,True,,,address_state_not_ga | location_city_vs_address_city_conflict | outside_georgia_polygon,7
Morgan Corp.,"Lawrenceville, Gwinnett County","15 Morgan Center Dr, Morganton, NC 28655",35.754058,-81.667538,Gwinnett,,Lawrenceville,Morganton,NC,True,,,address_state_not_ga | location_city_vs_address_city_conflict | outside_georgia_polygon,7
Volvo Cars USA,Georgia,"1800 Volvo Place, Mahwah, NJ 07430",41.0740427635951,-74.1712478395491,,,,Mahwah,NJ,True,,,address_state_not_ga | outside_georgia_polygon,6
Volvo Group North America,Georgia,"7900 National Service Rd, Greensboro, NC 27409",36.0818642621738,-79.9684288843386,,,,Greensboro,NC,True,,,address_state_not_ga | outside_georgia_polygon,6
ALBAform Inc.,"Calhoun, Gordon County","6505 McEver Rd, Flowery Branch, GA 30542",34.1674763,-83.9581455,Gordon,Hall,Calhoun,Flowery Branch,GA,False,DUP013,suspicious_multi_company_multi_address,location_city_vs_address_city_conflict | labeled_county_vs_computed_county_mismatch | duplicate_coordinate_cluster,4
Apache Mills Inc.,"Hawkinsville, Pulaski County","3270 Joe Jerkins Blvd SE, Calhoun, GA 30701",34.1674763,-83.9581455,Pulaski,Hall,Hawkinsville,Calhoun,GA,False,DUP013,suspicious_multi_company_multi_address,location_city_vs_address_city_conflict | labeled_county_vs_computed_county_mismatch | duplicate_coordinate_cluster,4
Hanon Systems USA LLC,"Griffin, Spalding County","400 Hanon Dr, Shorter, GA 36075",32.4705166,-85.8969782,Spalding,,Griffin,Shorter,GA,True,DUP004,shared_address_or_alias,location_city_vs_address_city_conflict | outside_georgia_polygon | duplicate_coordinate_cluster,4
Hitachi Astemo,"Fayetteville, Fayette County","400 Hanon Dr, Shorter, GA 36075",32.4705166,-85.8969782,Fayette,,Fayetteville,Shorter,GA,True,DUP004,shared_address_or_alias,location_city_vs_address_city_conflict | outside_georgia_polygon | duplicate_coordinate_cluster,4
Hyundai & LG Energy Solution (LGES),"Cumming, Forsyth County","700 Hyundai Blvd, Ellabell, GA 31308",22.093612,82.149816,Forsyth,,Cumming,Ellabell,GA,True,DUP001,shared_address_or_alias,location_city_vs_address_city_conflict | outside_georgia_polygon | duplicate_coordinate_cluster,4
Hyundai Industrial Co.,"Valdosta, Lowndes County","700 Hyundai Blvd, Ellabell, GA 31308",22.093612,82.149816,Lowndes,,Valdosta,Ellabell,GA,True,DUP001,shared_address_or_alias,location_city_vs_address_city_conflict | outside_georgia_polygon | duplicate_coordinate_cluster,4
Hyundai MOBIS (Georgia),"Fayetteville, Fayette County","300 Hyundai MOBIS Dr, West Point, GA 31833",32.8772531,-85.183728,Fayette,Troup,Fayetteville,West Point,GA,False,DUP005,suspicious_multi_company_multi_address,location_city_vs_address_city_conflict | labeled_county_vs_computed_county_mismatch | duplicate_coordinate_cluster,4
Hyundai Transys Georgia Powertrain,"Dublin, Laurens County","100 Powertrain Way, West Point, GA 31833",32.903183,-85.159941,Laurens,Troup,Dublin,West Point,GA,False,DUP006,suspicious_multi_company_multi_address,location_city_vs_address_city_conflict | labeled_county_vs_computed_county_mismatch | duplicate_coordinate_cluster,4
Hyundai Transys Georgia Seating Systems,"Marietta, Cobb County","801 Transys Pkwy, West Point, GA 31833",32.8772531,-85.183728,Cobb,Troup,Marietta,West Point,GA,False,DUP005,suspicious_multi_company_multi_address,location_city_vs_address_city_conflict | labeled_county_vs_computed_county_mismatch | duplicate_coordinate_cluster,4
JAC Products Inc.,"Clarkesville, Habersham County","120 Logistics Pkwy, Jefferson, GA 30549",34.10601,-83.589021,Habersham,Jackson,Clarkesville,Jefferson,GA,False,DUP011,suspicious_multi_company_multi_address,location_city_vs_address_city_conflict | labeled_county_vs_computed_county_mismatch | duplicate_coordinate_cluster,4
Seoyon E-HWA,"Hazlehurst, Davis County","200 Seoyon E-HWA Blvd, West Point, GA 31833",32.903183,-85.159941,Davis,Troup,Hazlehurst,West Point,GA,False,DUP006,suspicious_multi_company_multi_address,location_city_vs_address_city_conflict | labeled_county_vs_computed_county_mismatch | duplicate_coordinate_cluster,4
Seoyon E-Hwa Interior Systems,"Macon, Bibb County","200 Seoyon E-HWA Blvd, West Point, GA 31833",32.8772531,-85.183728,Bibb,Troup,Macon,West Point,GA,False,DUP005,suspicious_multi_company_multi_address,location_city_vs_address_city_conflict | labeled_county_vs_computed_county_mismatch | duplicate_coordinate_cluster,4
ACM Georgia LLC,"Calhoun, Gordon County","975 Thomson Hwy, Warrenton, GA 30828",33.4122927,-82.6406263,Gordon,Warren,Calhoun,Warrenton,GA,False,,,location_city_vs_address_city_conflict | labeled_county_vs_computed_county_mismatch,3
AVS,"Barnesville, Lamar County","6110 McFarland Station Dr, Alpharetta, GA 30004 ",34.134562,-84.252772,Lamar,Forsyth,Barnesville,Alpharetta,GA,False,,,location_city_vs_address_city_conflict | labeled_county_vs_computed_county_mismatch,3
Adient,"Ringgold, Catoosa County","1700 S Progress Pkwy, West Point, GA 31833",32.8486888,-85.1244466,Catoosa,Harris,Ringgold,West Point,GA,False,,,location_city_vs_address_city_conflict | labeled_county_vs_computed_county_mismatch,3
Ajin Georgia,"Dalton, Whitfield County","355 Rocky Rd, Register, GA 30452",32.3008535,-81.8644866,Whitfield,Bulloch,Dalton,Register,GA,False,,,location_city_vs_address_city_conflict | labeled_county_vs_computed_county_mismatch,3
Archer Aviation Inc.,"Ellaville, Schley County","2151 Centennial Pkwy NE, Covington, GA 30014",33.5928931,-83.6101194,Schley,Morgan,Ellaville,Covington,GA,False,,,location_city_vs_address_city_conflict | labeled_county_vs_computed_county_mismatch,3
Arising Industries Inc.,"Macon, Bibb County","6010 Unity Dr, Norcross, GA 30071",33.9151041,-84.2039953,Bibb,Gwinnett,Macon,Norcross,GA,False,DUP010,benign_same_company,location_city_vs_address_city_conflict | labeled_county_vs_computed_county_mismatch | duplicate_coordinate_cluster,3
Ascend Elements,"Statesboro, Bulloch County","1409 Brampton Ave, Covington, GA 30014",33.3390858,-84.1874153,Bulloch,Henry,Statesboro,Covington,GA,False,,,location_city_vs_address_city_conflict | labeled_county_vs_computed_county_mismatch,3
Beaver Manufacturing Co. Inc.,"Griffin, Spalding County","12 Ed Needham Dr, Mansfield, GA 30055",33.518502,-83.736037,Spalding,Newton,Griffin,Mansfield,GA,False,,,location_city_vs_address_city_conflict | labeled_county_vs_computed_county_mismatch,3
Big Tex Trailer Manufacturing Inc.,"Monroe, Walton County","3850 Harrison Rd, Loganville, GA 30052",33.849953,-83.920769,Walton,Gwinnett,Monroe,Loganville,GA,False,,,location_city_vs_address_city_conflict | labeled_county_vs_computed_county_mismatch,3
Blue Bird Corp.,"Elberton, Elbert County","402 Blue Bird Blvd, Fort Valley, GA 31030",32.561892,-83.87919,Elbert,Peach,Elberton,Fort Valley,GA,False,,,location_city_vs_address_city_conflict | labeled_county_vs_computed_county_mismatch,3
Blue Ridge Manufacturing,"Canton, Cherokee County","87 Tom Boyd Rd, Blue Ridge, GA 30513",34.8963485,-84.094162,Cherokee,Union,Canton,Blue Ridge,GA,False,,,location_city_vs_address_city_conflict | labeled_county_vs_computed_county_mismatch,3
Boogook Industries,"Gainesville, Hall County","2600 Weaver Rd Suite 1-11, Macon, GA 31217",32.8141689,-83.5566387,Hall,Bibb,Gainesville,Macon,GA,False,,,location_city_vs_address_city_conflict | labeled_county_vs_computed_county_mismatch,3
Bosal Industries Georgia,"Rome, Floyd County","1 Bosal Way, Lavonia, GA 30553",34.4385903,-83.1215748,Floyd,Franklin,Rome,Lavonia,GA,False,,,location_city_vs_address_city_conflict | labeled_county_vs_computed_county_mismatch,3
Bosch (Automotive Division),"Thomson, McDuffie County","1241 Meadowbrook Dr, Toccoa, GA 30577",34.5288916,-83.2825339,Mcduffie,Stephens,Thomson,Toccoa,GA,False,,,location_city_vs_address_city_conflict | labeled_county_vs_computed_county_mismatch,3
Bridgestone Bandag,"Augusta, Richmond County","801 Greenbelt Pkwy, Griffin, GA 30223",33.2369594,-84.2346421,Richmond,Spalding,Augusta,Griffin,GA,False,,,location_city_vs_address_city_conflict | labeled_county_vs_computed_county_mismatch,3
Carcoustics USA,"Griffin, Spalding County","4740 S Lee St, Buford, GA 30518",34.1143595,-84.0074037,Spalding,Gwinnett,Griffin,Buford,GA,False,,,location_city_vs_address_city_conflict | labeled_county_vs_computed_county_mismatch,3
Club Car LLC,"Madison, Morgan County","4125 Washington Rd, Evans, GA 30809",33.5200327,-82.1126401,Morgan,Columbia,Madison,Evans,GA,False,,,location_city_vs_address_city_conflict | labeled_county_vs_computed_county_mismatch,3
Continental Automotive,"Jasper, Pickens County","7310 Oakley Industrial Blvd, Fairburn, GA 30213",33.5496124,-84.5424686,Pickens,Fulton,Jasper,Fairburn,GA,False,,,location_city_vs_address_city_conflict | labeled_county_vs_computed_county_mismatch,3
Continental Tire the Americas LLC,"Lawrenceville, Gwinnett County","160 Aldora St, Barnesville, GA 30204",33.0526972,-84.175058,Gwinnett,Lamar,Lawrenceville,Barnesville,GA,False,,,location_city_vs_address_city_conflict | labeled_county_vs_computed_county_mismatch,3
DAS Corp.,"Gainesville, Hall County","730 Fortner Rd, Metter, GA 30439",32.3838336,-82.0753462,Hall,Candler,Gainesville,Metter,GA,False,,,location_city_vs_address_city_conflict | labeled_county_vs_computed_county_mismatch,3
DaeChang Seat Company,"Decatur, DeKalb County","Savannah Chatham Manufacturing Center, Savannah, GA 31408",32.0841897,-81.0871481,Dekalb,Chatham,Decatur,Savannah,GA,False,,,location_city_vs_address_city_conflict | labeled_county_vs_computed_county_mismatch,3
DeKalb Tool & Die Inc.,"Calhoun, Gordon County","2220 Stephens Dr, Tucker, GA 30084",33.849158,-84.230399,Gordon,Dekalb,Calhoun,Tucker,GA,False,,,location_city_vs_address_city_conflict | labeled_county_vs_computed_county_mismatch,3
Denkai America,"Cumming, Forsyth County","1614 Douglas Rd, Augusta, GA 30906",33.4579269,-81.9963887,Forsyth,Richmond,Cumming,Augusta,GA,False,,,location_city_vs_address_city_conflict | labeled_county_vs_computed_county_mismatch,3
Die-Tech Industries Inc.,"Hinesville, Liberty County","102 Automation Dr, Carrollton, GA 30117",33.6166214,-85.1044625,Liberty,Carroll,Hinesville,Carrollton,GA,False,,,location_city_vs_address_city_conflict | labeled_county_vs_computed_county_mismatch,3
Dinex Emissions Inc.,"Greensboro, Greene County","2020 Waldrep Industrial Blvd., Dublin, GA 31021",32.5138588,-82.9469249,Greene,Laurens,Greensboro,Dublin,GA,False,,,location_city_vs_address_city_conflict | labeled_county_vs_computed_county_mismatch,3
Dorsett Industries Inc.,"Franklin, Heard County","1304 May Street, Dalton, GA 30721",34.763633,-84.9494134,Heard,Whitfield,Franklin,Dalton,GA,False,,,location_city_vs_address_city_conflict | labeled_county_vs_computed_county_mismatch,3
Down 2 Earth Trailers,"Cartersville, Bartow County","1605 E Parker Street, Baxley, GA 31513",31.7707316,-82.3229771,Bartow,Appling,Cartersville,Baxley,GA,False,,,location_city_vs_address_city_conflict | labeled_county_vs_computed_county_mismatch,3
Duckyang,"Augusta, Richmond County","984 Broadway Avenue, Braselton, GA 30517",34.106234,-83.778946,Richmond,Jackson,Augusta,Braselton,GA,False,,,location_city_vs_address_city_conflict | labeled_county_vs_computed_county_mismatch,3
EVCO Plastics,"Augusta, Richmond County","100 EVCO Drive, Calhoun, GA 30701",34.4455959,-84.9210517,Richmond,Gordon,Augusta,Calhoun,GA,False,,,location_city_vs_address_city_conflict | labeled_county_vs_computed_county_mismatch,3
Eaton Corp.,"Cartersville, Bartow County","695 Indian Hills Road, Athens, GA 30601",33.9664651,-83.3419235,Bartow,Clarke,Cartersville,Athens,GA,False,,,location_city_vs_address_city_conflict | labeled_county_vs_computed_county_mismatch,3
Ecoplastic America Corporation,"Greensboro, Greene County","4800 Highway 301 S., Register, GA 30452",32.3288665,-81.8739395,Greene,Bulloch,Greensboro,Register,GA,False,,,location_city_vs_address_city_conflict | labeled_county_vs_computed_county_mismatch,3
Ecoplastic Corporation,"Rome, Floyd County","25 Siebald St, Statesboro, GA 30458",32.4500733,-81.7827371,Floyd,Bulloch,Rome,Statesboro,GA,False,,,location_city_vs_address_city_conflict | labeled_county_vs_computed_county_mismatch,3
Elan Technology Inc.,"Atlanta, Fulton County","169 Elan Court, Midway, GA 31320",31.7958661,-81.412058,Fulton,Liberty,Atlanta,Midway,GA,False,,,location_city_vs_address_city_conflict | labeled_county_vs_computed_county_mismatch,3
Enchem America Inc.,"Cumming, Forsyth County","648 Highway 334, Commerce, GA 30530",34.1720636,-83.4364623,Forsyth,Jackson,Cumming,Commerce,GA,False,,,location_city_vs_address_city_conflict | labeled_county_vs_computed_county_mismatch,3
Enplas USA Inc.,"Covington, Newton County","1901 West Oak Circle, Marietta, GA 30062",33.9867797,-84.522309,Newton,Cobb,Covington,Marietta,GA,False,,,location_city_vs_address_city_conflict | labeled_county_vs_computed_county_mismatch,3
Erdrich USA Inc.,"Greensboro, Greene County","112 Willie Paulk Parkway, Dublin, GA 31021",32.5001482,-82.9817196,Greene,Laurens,Greensboro,Dublin,GA,False,,,location_city_vs_address_city_conflict | labeled_county_vs_computed_county_mismatch,3
F&P Georgia Manufacturing,"Toccoa, Stephens County","88 Enterprise Drive SE, Rome, GA 30161",34.1708696,-85.1938687,Stephens,Floyd,Toccoa,Rome,GA,False,,,location_city_vs_address_city_conflict | labeled_county_vs_computed_county_mismatch,3
FOX Factory,"Covington, Newton County","2055 Sugarloaf Circle, Suite 300, Duluth, GA 30097",33.9864549,-84.0897605,Newton,Gwinnett,Covington,Duluth,GA,False,,,location_city_vs_address_city_conflict | labeled_county_vs_computed_county_mismatch,3
FREYR Battery,"Marietta, Cobb County","601 10th St NW, Suite 400, Atlanta, GA 30318",33.7817149,-84.4078083,Cobb,Fulton,Marietta,Atlanta,GA,False,,,location_city_vs_address_city_conflict | labeled_county_vs_computed_county_mismatch,3
Fanello Industries Inc.,"Cumming, Forsyth County","50 E Main Street, Lavonia, GA 30553",34.4200267,-83.0970583,Forsyth,Franklin,Cumming,Lavonia,GA,False,,,location_city_vs_address_city_conflict | labeled_county_vs_computed_county_mismatch,3
First American Resources,"Albany, Dougherty County","2030 Riverview Industrial Dr SE, Mableton, GA 30126",33.8131088,-84.4933732,Dougherty,Cobb,Albany,Mableton,GA,False,,,location_city_vs_address_city_conflict | labeled_county_vs_computed_county_mismatch,3
Fouts Brothers Fire Equipment,"Statesboro, Bulloch County","138 Roberson Mill Rd, Milledgeville, GA 31061",33.1040128,-83.2566807,Bulloch,Baldwin,Statesboro,Milledgeville,GA,False,,,location_city_vs_address_city_conflict | labeled_county_vs_computed_county_mismatch,3
Freudenberg-NOK,"Warrenton, Warren County","1618 Lukken Industrial Dr, LaGrange, GA 30240",33.0137815,-85.063217,Warren,Troup,Warrenton,Lagrange,GA,False,DUP007,benign_same_company,location_city_vs_address_city_conflict | labeled_county_vs_computed_county_mismatch | duplicate_coordinate_cluster,3
Freudenberg-NOK,"Carnesville, Franklin County","1618 Lukken Industrial Dr, LaGrange, GA 30240",33.0137815,-85.063217,Franklin,Troup,Carnesville,Lagrange,GA,False,DUP007,benign_same_company,location_city_vs_address_city_conflict | labeled_county_vs_computed_county_mismatch | duplicate_coordinate_cluster,3
GEDIA Georgia LLC,"Jonesboro, Clayton County","1 GEDIA Way, Dalton, GA 30721",33.7822022,-84.4078083,Clayton,Fulton,Jonesboro,Dalton,GA,False,,,location_city_vs_address_city_conflict | labeled_county_vs_computed_county_mismatch,3
GLOVIS Georgia LLC,"Dublin, Laurens County","127 N Park Ct, Savannah, GA 31407",32.231682,-81.1991214,Laurens,Chatham,Dublin,Savannah,GA,False,,,location_city_vs_address_city_conflict | labeled_county_vs_computed_county_mismatch,3
GSC Steel Stamping LLC,"Gainesville, Hall County","104 International Pkwy, Adairsville, GA 30103",34.3845755,-84.9241385,Hall,Bartow,Gainesville,Adairsville,GA,False,,,location_city_vs_address_city_conflict | labeled_county_vs_computed_county_mismatch,3
Global Powertrain Systems LLC,"Rome, Floyd County","300 Logistics Parkway, Jefferson, GA 30549",34.1890046,-83.5972972,Floyd,Jackson,Rome,Jefferson,GA,False,,,location_city_vs_address_city_conflict | labeled_county_vs_computed_county_mismatch,3
Goodyear Tire & Rubber Co.,"Athens, Clarke County","1420 Phoenix Blvd, Suite 300, Atlanta, GA 30349",33.6143207,-84.4387649,Clarke,Clayton,Athens,Atlanta,GA,False,,,location_city_vs_address_city_conflict | labeled_county_vs_computed_county_mismatch,3
Great Dane Trailers,"Tifton, Tift County","602 E Lathrop Ave, Savannah, GA 31415",32.0869786,-81.1109775,Tift,Chatham,Tifton,Savannah,GA,False,DUP002,shared_address_or_alias,location_city_vs_address_city_conflict | labeled_county_vs_computed_county_mismatch | duplicate_coordinate_cluster,3
Grudem,"Lawrenceville, Gwinnett County","1245 Industrial Blvd, Gainesville, GA 30501",34.2762316,-83.8348776,Gwinnett,Hall,Lawrenceville,Gainesville,GA,False,,,location_city_vs_address_city_conflict | labeled_county_vs_computed_county_mismatch,3
HELLA Automotive Sales Inc.,"Gainesville, Hall County","2018 Powers Ferry Rd SE, Suite 400, Atlanta, GA 30339",33.9022104,-84.4579122,Hall,Cobb,Gainesville,Atlanta,GA,False,,,location_city_vs_address_city_conflict | labeled_county_vs_computed_county_mismatch,3
HEXPOL Compounding Corp.,"Decatur, DeKalb County","1020 Plantation Way, Griffin, GA 30224",33.2928001,-84.3008919,Dekalb,Spalding,Decatur,Griffin,GA,False,,,location_city_vs_address_city_conflict | labeled_county_vs_computed_county_mismatch,3
Haering Precision USA LP,"Dahlonega, Lumpkin County","5000 Frontage Rd, Buford, GA 30518",34.2328208,-83.8634499,Lumpkin,Hall,Dahlonega,Buford,GA,False,DUP015,benign_same_company,location_city_vs_address_city_conflict | labeled_county_vs_computed_county_mismatch | duplicate_coordinate_cluster,3
Hitachi Astemo Americas Inc.,Coweta County,"400 Hanon Dr, Shorter, GA 36075",32.4705166,-85.8969782,Coweta,,,Shorter,GA,True,DUP004,shared_address_or_alias,outside_georgia_polygon | duplicate_coordinate_cluster,3
Hollingsworth & Vose Co.,"Bainbridge, Decatur County","111 Hollingsworth & Vose Rd, Hawkinsville, GA 31036",32.2835422,-83.4667907,Decatur,Pulaski,Bainbridge,Hawkinsville,GA,False,,,location_city_vs_address_city_conflict | labeled_county_vs_computed_county_mismatch,3
Honda Development & Manufacturing,"Pembroke, Bryan County","1000 Honda Dr, Tallapoosa, GA 30176",34.2575874,-84.5070413,Bryan,Cherokee,Pembroke,Tallapoosa,GA,False,,,location_city_vs_address_city_conflict | labeled_county_vs_computed_county_mismatch,3
Hwashin,"Jefferson, Jackson County","1465 Troup Industrial Blvd, LaGrange, GA 30240",33.6931709,-85.2753961,Jackson,Haralson,Jefferson,Lagrange,GA,False,,,location_city_vs_address_city_conflict | labeled_county_vs_computed_county_mismatch,3
Hyundai Motor Group,"McDonough, Henry County","700 Hyundai Blvd, Ellabell, GA 31308",32.159233,-81.502963,Henry,Bryan,Mcdonough,Ellabell,GA,False,DUP003,shared_address_or_alias,location_city_vs_address_city_conflict | labeled_county_vs_computed_county_mismatch | duplicate_coordinate_cluster,3
IMMI,"Jefferson, Jackson County","2002 Industrial Park Dr, Dublin, GA 31021",32.511763,-82.923552,Jackson,Laurens,Jefferson,Dublin,GA,False,,,location_city_vs_address_city_conflict | labeled_county_vs_computed_county_mismatch,3
IMS Gear Georgia Inc.,"Fayetteville, Fayette County","300 Satellite Blvd NE, Suwanee, GA 30024",34.035115,-84.064265,Fayette,Gwinnett,Fayetteville,Suwanee,GA,False,,,location_city_vs_address_city_conflict | labeled_county_vs_computed_county_mismatch,3
Inalfa Roof Systems Inc.,"Lawrenceville, Gwinnett County","100 Inalfa Dr, Acworth, GA 30102",34.07068,-84.589406,Gwinnett,Cobb,Lawrenceville,Acworth,GA,False,,,location_city_vs_address_city_conflict | labeled_county_vs_computed_county_mismatch,3
JTEKT North America Corp.,"Canton, Cherokee County","301 Teco Dr, Pendergrass, GA 30567",34.130329,-83.7648529,Cherokee,Jackson,Canton,Pendergrass,GA,False,,,location_city_vs_address_city_conflict | labeled_county_vs_computed_county_mismatch,3
Jefferson Southern Corp.,"Dahlonega, Lumpkin County","1 Jefferson Southern Dr, Commerce, GA 30529",34.197573,-84.0452959,Lumpkin,Forsyth,Dahlonega,Commerce,GA,False,DUP014,shared_address_or_alias,location_city_vs_address_city_conflict | labeled_county_vs_computed_county_mismatch | duplicate_coordinate_cluster,3
Jefferson Southern Corporation,"Monroe, Walton County","1 Jefferson Southern Dr, Commerce, GA 30529",34.197573,-84.0452959,Walton,Forsyth,Monroe,Commerce,GA,False,DUP014,shared_address_or_alias,location_city_vs_address_city_conflict | labeled_county_vs_computed_county_mismatch | duplicate_coordinate_cluster,3
KTX America Corporation,"Springfield, Effingham County","205 KTX Dr, LaGrange, GA 30240",33.163387,-84.766589,Effingham,Meriwether,Springfield,Lagrange,GA,False,,,location_city_vs_address_city_conflict | labeled_county_vs_computed_county_mismatch,3
Kia Georgia Inc.,"Appling, Columbia County","1025 Kia Blvd, West Point, GA 31833",32.9322549,-85.1253523,Columbia,Troup,Appling,West Point,GA,False,,,location_city_vs_address_city_conflict | labeled_county_vs_computed_county_mismatch,3
Lark United Manufacturing Inc.,"Gainesville, Hall County","200 Industrial Blvd, Dublin, GA 31021",32.5320682,-82.950167,Hall,Laurens,Gainesville,Dublin,GA,False,,,location_city_vs_address_city_conflict | labeled_county_vs_computed_county_mismatch,3
Lear Corporation,"Cartersville, Bartow County","100 Lear Dr, Hammond Industrial Park, GA 30240",33.051868,-85.035353,Bartow,Troup,Cartersville,Hammond Industrial Park,GA,False,,,location_city_vs_address_city_conflict | labeled_county_vs_computed_county_mismatch,3
Lehigh Technologies Inc.,"Rome, Floyd County","1000 New Horizons Way, Tucker, GA 30084",33.760895,-83.862556,Floyd,Walton,Rome,Tucker,GA,False,,,location_city_vs_address_city_conflict | labeled_county_vs_computed_county_mismatch,3
Lund International Inc.,"Savannah, Chatham County","189 Excalibur Dr, Madison, GA 30650",33.589481,-83.518495,Chatham,Morgan,Savannah,Madison,GA,False,DUP009,shared_address_or_alias,location_city_vs_address_city_conflict | labeled_county_vs_computed_county_mismatch | duplicate_coordinate_cluster,3
Lund International Inc./Ventshade Division,"Statesboro, Bulloch County","189 Excalibur Dr, Madison, GA 30650",33.589481,-83.518495,Bulloch,Morgan,Statesboro,Madison,GA,False,DUP009,shared_address_or_alias,location_city_vs_address_city_conflict | labeled_county_vs_computed_county_mismatch | duplicate_coordinate_cluster,3
Lyle Industries Inc.,"Buchanan, Haralson County","715 Lyle Industrial Dr, Dawsonville, GA 30534",34.3593919607897,-84.0532282608105,Haralson,Dawson,Buchanan,Dawsonville,GA,False,,,location_city_vs_address_city_conflict | labeled_county_vs_computed_county_mismatch,3
Lyle Industries Inc.,"Rome, Floyd County","715 Lyle Industrial Dr, Dawsonville, GA 30534",34.3589668332603,-84.0531424301202,Floyd,Dawson,Rome,Dawsonville,GA,False,,,location_city_vs_address_city_conflict | labeled_county_vs_computed_county_mismatch,3
Mack Trucks,"Savannah, Chatham County","1525 Madison Hwy, Dublin, GA 31021",30.804784,-83.273804,Chatham,Lowndes,Savannah,Dublin,GA,False,,,location_city_vs_address_city_conflict | labeled_county_vs_computed_county_mismatch,3
Magna International,"Augusta, Richmond County","250 Magna Dr, Carrollton, GA 30117",33.574772,-85.050522,Richmond,Carroll,Augusta,Carrollton,GA,False,,,location_city_vs_address_city_conflict | labeled_county_vs_computed_county_mismatch,3
Mando America Corp.,"Dublin, Laurens County","100 Mando Dr, Hogansville, GA 30230",33.1709673066386,-84.8589919386904,Laurens,Meriwether,Dublin,Hogansville,GA,False,,,location_city_vs_address_city_conflict | labeled_county_vs_computed_county_mismatch,3
Master Craft Engineering Inc.,"Savannah, Chatham County","1000 Mastercraft Ln, Lavonia, GA 30553",34.408031,-83.144241,Chatham,Franklin,Savannah,Lavonia,GA,False,,,location_city_vs_address_city_conflict | labeled_county_vs_computed_county_mismatch,3
Maxxis International USA,"La Fayette, Walker County","100 International Pkwy, Suwanee, GA 30024",33.6352704,-84.3965777,Walker,Clayton,La Fayette,Suwanee,GA,False,,,location_city_vs_address_city_conflict | labeled_county_vs_computed_county_mismatch,3
Mercedes-Benz USA LLC,"Cedartown, Polk County","1 Mercedes-Benz Dr, Sandy Springs, GA 30328",33.9345221674192,-84.3634150192005,Polk,Fulton,Cedartown,Sandy Springs,GA,False,,,location_city_vs_address_city_conflict | labeled_county_vs_computed_county_mismatch,3
Milliken & Co./Valway Plant,"Greenville, Meriwether County","920 Milliken Rd, LaGrange, GA 30241",33.050989,-85.094007,Meriwether,Troup,Greenville,Lagrange,GA,False,,,location_city_vs_address_city_conflict | labeled_county_vs_computed_county_mismatch,3
Mobis Alabama LLC,"Gainesville, Hall County","300 Hyundai MOBIS Dr, West Point, GA 31833",32.9150013591105,-85.123997845357,Hall,Troup,Gainesville,West Point,GA,False,,,location_city_vs_address_city_conflict | labeled_county_vs_computed_county_mismatch,3
MollerTech LLC,"Toccoa, Stephens County","100 Mollertech Dr, Dalton, GA 30721",34.788493,-84.91381,Stephens,Whitfield,Toccoa,Dalton,GA,False,,,location_city_vs_address_city_conflict | labeled_county_vs_computed_county_mismatch,3
Murata Electronics North America Inc.,"Covington, Newton County","1000 Corporate Dr, Smyrna, GA 30080",33.8866538,-84.783561,Newton,Paulding,Covington,Smyrna,GA,False,,,location_city_vs_address_city_conflict | labeled_county_vs_computed_county_mismatch,3
NVH Korea,"Greenville, Meriwether County","120 Colvin Drive, Locust Grove, GA 30248",33.3690335423479,-84.120730447218,Meriwether,Henry,Greenville,Locust Grove,GA,False,,,location_city_vs_address_city_conflict | labeled_county_vs_computed_county_mismatch,3
Neaton Rome Inc.,"Hamilton, Harris County","1 Neaton Dr, Rome, GA 30161",33.766217,-84.713912,Harris,Douglas,Hamilton,Rome,GA,False,,,location_city_vs_address_city_conflict | labeled_county_vs_computed_county_mismatch,3
Nidec Elesys Americas Corp.,"Metter, Candler County","3900 Lakefield Ct, Suwanee, GA 30024",34.064876,-84.156737,Candler,Forsyth,Metter,Suwanee,GA,False,,,location_city_vs_address_city_conflict | labeled_county_vs_computed_county_mismatch,3
Nile Automotive,"Dalton, Whitfield County","4490 Alicia Lane, Cumming, GA 30028",34.2861491093215,-84.0807175267039,Whitfield,Forsyth,Dalton,Cumming,GA,False,,,location_city_vs_address_city_conflict | labeled_county_vs_computed_county_mismatch,3
Nisshinbo Automotive Manufacturing Inc.,"Gainesville, Hall County","14187 Nisshinbo Drive, Covington, GA 30014",33.627596641273,-83.8396850708471,Hall,Newton,Gainesville,Covington,GA,False,,,location_city_vs_address_city_conflict | labeled_county_vs_computed_county_mismatch,3
Nivel Parts & Manufacturing Co. LLC,"Savannah, Chatham County","2051 2nd Ave NE, Cairo, GA 39828",30.8796091793369,-84.184908370919,Chatham,Grady,Savannah,Cairo,GA,False,,,location_city_vs_address_city_conflict | labeled_county_vs_computed_county_mismatch,3
Novelis Inc.,"Gainesville, Hall County","3560 Lenox Rd NE, Suite 2000, Atlanta, GA 30326",33.8540394890331,-84.3628188393643,Hall,Fulton,Gainesville,Atlanta,GA,False,,,location_city_vs_address_city_conflict | labeled_county_vs_computed_county_mismatch,3
Novelis Inc.,"Trenton, Dade County","3560 Lenox Rd NE, Suite 2000, Atlanta, GA 30326",33.8542055150128,-84.3628141775477,Dade,Fulton,Trenton,Atlanta,GA,False,,,location_city_vs_address_city_conflict | labeled_county_vs_computed_county_mismatch,3
Novelis Inc.,"Lawrenceville, Gwinnett County","3560 Lenox Rd NE, Suite 2000, Atlanta, GA 30326",33.8541642345505,-84.3628202675058,Gwinnett,Fulton,Lawrenceville,Atlanta,GA,False,,,location_city_vs_address_city_conflict | labeled_county_vs_computed_county_mismatch,3
OTR Wheel Engineering Inc.,"Cordele, Crisp County","6 Riverside Industrial Park, Rome, GA 30161",34.2805120276445,-85.1648883768461,Crisp,Floyd,Cordele,Rome,GA,False,,,location_city_vs_address_city_conflict | labeled_county_vs_computed_county_mismatch,3
Oneda Corp.,"Dalton, Whitfield County","2157 Atlanta Highway, Gainesville, GA 30504",34.2525104,-83.8448804,Whitfield,Hall,Dalton,Gainesville,GA,False,,,location_city_vs_address_city_conflict | labeled_county_vs_computed_county_mismatch,3
PIOLAX Corp.,"Rome, Floyd County","139 Etowah Industrial Court, Canton, GA 30114",34.2456357508315,-84.4719463416027,Floyd,Cherokee,Rome,Canton,GA,False,,,location_city_vs_address_city_conflict | labeled_county_vs_computed_county_mismatch,3
Paccar,"Trenton, Dade County","6853 Southlake Pkwy, Morrow, GA 30260",33.5675979753355,-84.3387340894887,Dade,Clayton,Trenton,Morrow,GA,False,,,location_city_vs_address_city_conflict | labeled_county_vs_computed_county_mismatch,3
Pak-Lite Inc.,"Rome, Floyd County","550 Old Peachtree Rd NW, Suwanee, GA 30024",34.0114815633921,-84.0575044342891,Floyd,Gwinnett,Rome,Suwanee,GA,False,,,location_city_vs_address_city_conflict | labeled_county_vs_computed_county_mismatch,3
Panasonic Automotive Systems Co.,"Hinesville, Liberty County","1 Panasonic Way, Peachtree City, GA 30269",33.3586677099571,-84.5593070469745,Liberty,Fayette,Hinesville,Peachtree City,GA,False,,,location_city_vs_address_city_conflict | labeled_county_vs_computed_county_mismatch,3
Panasonic Automotive Systems Co.,"Cartersville, Bartow County","1 Panasonic Way, Peachtree City, GA 30269",33.3540321602237,-84.554642968484,Bartow,Fayette,Cartersville,Peachtree City,GA,False,,,location_city_vs_address_city_conflict | labeled_county_vs_computed_county_mismatch,3
Panduit Corp.,"Cartersville, Bartow County","1819 Atlanta Hwy, Cumming, GA 30040",34.1661720605728,-84.1654472334863,Bartow,Forsyth,Cartersville,Cumming,GA,False,,,location_city_vs_address_city_conflict | labeled_county_vs_computed_county_mismatch,3
Peerless-Winsmith Inc.,"Statesboro, Bulloch County","4510 Cantrell Road, Flowery Branch, GA 30542",34.1933557356756,-83.9074650474823,Bulloch,Hall,Statesboro,Flowery Branch,GA,False,,,location_city_vs_address_city_conflict | labeled_county_vs_computed_county_mismatch,3
Perkins Small Engines LLC,"Zebulon, Pike County","325 Green Valley Road, Griffin, GA 30224",33.2313080586117,-84.223980728557,Pike,Spalding,Zebulon,Griffin,GA,False,,,location_city_vs_address_city_conflict | labeled_county_vs_computed_county_mismatch,3
Peterson Spring,"Hartwell, Hart County","600 Old Hull Road, Athens, GA 30601",33.9865336091146,-83.3410341200327,Hart,Clarke,Hartwell,Athens,GA,False,,,location_city_vs_address_city_conflict | labeled_county_vs_computed_county_mismatch,3
Piedmont Automotive Products Inc.,"Hamilton, Harris County","1058 Rocky Branch Rd, Clarkesville, GA 30523",34.6078319,-83.5074298,Harris,Habersham,Hamilton,Clarkesville,GA,False,,,location_city_vs_address_city_conflict | labeled_county_vs_computed_county_mismatch,3
Pirelli Tire North America LLC,"Carnesville, Franklin County","2819 Old Dawson Rd, Albany, GA 31707",31.6135962,-84.2222845,Franklin,Dougherty,Carnesville,Albany,GA,False,,,location_city_vs_address_city_conflict | labeled_county_vs_computed_county_mismatch,3
Porsche Cars North America Inc.,"Cairo, Grady County","1 Porsche Dr, Atlanta, GA 30328",33.6520232116159,-84.3985918227493,Grady,Fulton,Cairo,Atlanta,GA,False,,,location_city_vs_address_city_conflict | labeled_county_vs_computed_county_mismatch,3
Propex Operating Co. LLC,"Lawrenceville, Gwinnett County","490 Chatham Pkwy, Pooler, GA 31322",32.0941218,-81.1629908,Gwinnett,Chatham,Lawrenceville,Pooler,GA,False,,,location_city_vs_address_city_conflict | labeled_county_vs_computed_county_mismatch,3
QSR Inc.,"Lawrenceville, Gwinnett County","135 QSR Rd, LaGrange, GA 30240",33.555885,-84.443148,Gwinnett,Clayton,Lawrenceville,Lagrange,GA,False,,,location_city_vs_address_city_conflict | labeled_county_vs_computed_county_mismatch,3
Racemark International LLC,"Calhoun, Gordon County","152 Racemark Dr, Gray, GA 31032",32.991607,-83.567362,Gordon,Jones,Calhoun,Gray,GA,False,,,location_city_vs_address_city_conflict | labeled_county_vs_computed_county_mismatch,3
RealTruck,"Fayetteville, Fayette County","1656 Airport Rd N, Peachtree City, GA 30269",34.588242,-85.2883229,Fayette,Chattooga,Fayetteville,Peachtree City,GA,False,,,location_city_vs_address_city_conflict | labeled_county_vs_computed_county_mismatch,3
Rivian Automotive,"Gainesville, Hall County","1090 Roberts Dr NW, Atlanta, GA 30318",33.720227,-84.370567,Hall,Fulton,Gainesville,Atlanta,GA,False,,,location_city_vs_address_city_conflict | labeled_county_vs_computed_county_mismatch,3
SHIROKI North America Inc,"Dublin, Laurens County","100 Shiroki Way, LaGrange, GA 30241",33.558724,-84.44865,Laurens,Clayton,Dublin,Lagrange,GA,False,,,location_city_vs_address_city_conflict | labeled_county_vs_computed_county_mismatch,3
SK Battery America,"Hartwell, Hart County","700 Hyundai Blvd, Ellabell, GA 31308",32.159233,-81.502963,Hart,Bryan,Hartwell,Ellabell,GA,False,DUP003,shared_address_or_alias,location_city_vs_address_city_conflict | labeled_county_vs_computed_county_mismatch | duplicate_coordinate_cluster,3
SKF USA Inc.,"Carnesville, Franklin County","301 David Fletcher Dr, Ringgold, GA 30736",34.907514,-85.043812,Franklin,Catoosa,Carnesville,Ringgold,GA,False,,,location_city_vs_address_city_conflict | labeled_county_vs_computed_county_mismatch,3
SRG Global Inc.,"Atlanta, Fulton County","10116 Industrial Blvd NE, Covington, GA 30014",33.6130210157665,-83.8355886824132,Fulton,Newton,Atlanta,Covington,GA,False,,,location_city_vs_address_city_conflict | labeled_county_vs_computed_county_mismatch,3
Sejong Georgia LLC,Troup County,"100 Sejong Way, Jefferson, GA 30549",34.10601,-83.589021,Troup,Jackson,,Jefferson,GA,False,DUP011,suspicious_multi_company_multi_address,labeled_county_vs_computed_county_mismatch | duplicate_coordinate_cluster,3
Seohan Auto USA,"Hazlehurst, Davis County","850 Lamar St, LaGrange, GA 30240",33.0528839,-84.1616017,Davis,Lamar,Hazlehurst,Lagrange,GA,False,,,location_city_vs_address_city_conflict | labeled_county_vs_computed_county_mismatch,3
Sewon America Inc.,"Atlanta, Fulton County","210 Sewon Dr, LaGrange, GA 30241",33.0501,-85.008963,Fulton,Troup,Atlanta,Lagrange,GA,False,DUP008,benign_same_company,location_city_vs_address_city_conflict | labeled_county_vs_computed_county_mismatch | duplicate_coordinate_cluster,3
Sewon America Inc.,"Athens, Clarke County","210 Sewon Dr, LaGrange, GA 30241",33.0501,-85.008963,Clarke,Troup,Athens,Lagrange,GA,False,DUP008,benign_same_company,location_city_vs_address_city_conflict | labeled_county_vs_computed_county_mismatch | duplicate_coordinate_cluster,3
Sewon America Inc.,"Marietta, Cobb County","210 Sewon Dr, LaGrange, GA 30241",33.0501,-85.008963,Cobb,Troup,Marietta,Lagrange,GA,False,DUP008,benign_same_company,location_city_vs_address_city_conflict | labeled_county_vs_computed_county_mismatch | duplicate_coordinate_cluster,3
Solvay Specialty Polymers USA LLC,"Springfield, Effingham County","600 Patterson Ave, Augusta, GA 30901",34.1033951,-82.8532769,Effingham,Elbert,Springfield,Augusta,GA,False,,,location_city_vs_address_city_conflict | labeled_county_vs_computed_county_mismatch,3
Southern Switches Corp.,"Blue Ridge, Fannin County","715 Happy Hollow Rd, Dahlonega, GA 30533",34.5298911539072,-83.9984152634814,Fannin,Lumpkin,Blue Ridge,Dahlonega,GA,False,,,location_city_vs_address_city_conflict | labeled_county_vs_computed_county_mismatch,3
Suhner Manufacturing Corp.,"Douglas, Coffee County","43 Anderson Rd SW, Rome, GA 30161",34.2085971300834,-85.1899282777942,Coffee,Floyd,Douglas,Rome,GA,False,,,location_city_vs_address_city_conflict | labeled_county_vs_computed_county_mismatch,3
SungEel Recycling Park Georgia,"Macon, Bibb County","3237 Satellite Blvd, Suite 175, Duluth, GA 30096",33.962713,-84.11336,Bibb,Gwinnett,Macon,Duluth,GA,False,,,location_city_vs_address_city_conflict | labeled_county_vs_computed_county_mismatch,3
Superior Essex Inc.,"Pembroke, Bryan County","3600 Cobb International Blvd NW, Kennesaw, GA 30152",33.9990198954442,-84.6124810756932,Bryan,Cobb,Pembroke,Kennesaw,GA,False,,,location_city_vs_address_city_conflict | labeled_county_vs_computed_county_mismatch,3
Suzuki Manufacturing of America Corp.,"Monroe, Walton County","1000 McIntosh Trail SW, Rome, GA 30165",33.771861,-84.730029,Walton,Douglas,Monroe,Rome,GA,False,,,location_city_vs_address_city_conflict | labeled_county_vs_computed_county_mismatch,3
TDK Components USA Inc.,"Atlanta, Fulton County","4058 Rockmart Rd, Silver Creek, GA 30173",34.1773552,-85.1488486,Fulton,Floyd,Atlanta,Silver Creek,GA,False,,,location_city_vs_address_city_conflict | labeled_county_vs_computed_county_mismatch,3
TE Connectivity,"Fort Valley, Peach County","3295 Cobb International Blvd NW, Kennesaw, GA 30152",34.0027115,-84.6119832,Peach,Cobb,Fort Valley,Kennesaw,GA,False,,,location_city_vs_address_city_conflict | labeled_county_vs_computed_county_mismatch,3
TI Fluid Systems,"Atlanta, Fulton County","2 Swisher Dr, Cartersville, GA 30120",34.1446878814573,-84.7948577272343,Fulton,Bartow,Atlanta,Cartersville,GA,False,DUP012,benign_same_company,location_city_vs_address_city_conflict | labeled_county_vs_computed_county_mismatch | duplicate_coordinate_cluster,3
Thermal Ceramics Inc.,"Jefferson, Jackson County","2190 N Leg Rd, Augusta, GA 30909",33.4565319,-82.0665715,Jackson,Richmond,Jefferson,Augusta,GA,False,,,location_city_vs_address_city_conflict | labeled_county_vs_computed_county_mismatch,3
Thomson Plastics Inc.,"Covington, Newton County","1440 H D Atha Rd, Monroe, GA 30656",33.774282,-83.7755851,Newton,Walton,Covington,Monroe,GA,False,,,location_city_vs_address_city_conflict | labeled_county_vs_computed_county_mismatch,3
Tie Down Engineering,"Greensboro, Greene County","605 Stonehill Dr SW, Atlanta, GA 30336",33.7398598923206,-84.574782339876,Greene,Fulton,Greensboro,Atlanta,GA,False,,,location_city_vs_address_city_conflict | labeled_county_vs_computed_county_mismatch,3
Kyungshin America Corp.,Troup County,"85 Kyungshin Dr, West Point, GA 31833",32.8772531,-85.183728,Troup,Troup,,West Point,GA,False,DUP005,suspicious_multi_company_multi_address,duplicate_coordinate_cluster,1
